country,state,city,station,last_update,latitude,longitude,pollutant_id,pollutant_min,pollutant_max,pollutant_avg
India,Bihar,Gaya,"Kareemganj, Gaya - BSPCB",26-04-2025 18:00:00,24.792403,84.992416,NO2,1,8,5
India,Bihar,Gaya,"SFTI Kusdihra, Gaya - BSPCB",26-04-2025 18:00:00,24.762518,84.982348,NO2,15,19,18
India,Bihar,Gaya,"SFTI Kusdihra, Gaya - BSPCB",26-04-2025 18:00:00,24.762518,84.982348,NH3,3,4,3
India,Bihar,Gaya,"SFTI Kusdihra, Gaya - BSPCB",26-04-2025 18:00:00,24.762518,84.982348,SO2,8,11,9
India,Bihar,Gaya,"SFTI Kusdihra, Gaya - BSPCB",26-04-2025 18:00:00,24.762518,84.982348,OZONE,3,81,54
India,Bihar,Hajipur,"Industrial Area, Hajipur - BSPCB",26-04-2025 18:00:00,25.697189,85.2459,NO2,NA,NA,NA
India,Bihar,Hajipur,"Industrial Area, Hajipur - BSPCB",26-04-2025 18:00:00,25.697189,85.2459,NH3,NA,NA,NA
India,Bihar,Katihar,"Mirchaibari, Katihar - BSPCB",26-04-2025 18:00:00,25.560083,87.553265,NH3,1,3,1
India,Bihar,Katihar,"Mirchaibari, Katihar - BSPCB",26-04-2025 18:00:00,25.560083,87.553265,CO,8,95,43
India,Bihar,Kishanganj,"SDM Office_Khagra, Kishanganj - BSPCB",26-04-2025 18:00:00,26.0881305,87.93840336,PM2.5,18,83,44
India,Bihar,Kishanganj,"SDM Office_Khagra, Kishanganj - BSPCB",26-04-2025 18:00:00,26.0881305,87.93840336,PM10,44,199,97
India,Assam,Nalbari,"Bata Chowk, Nalbari - PCBA",26-04-2025 18:00:00,26.446912,91.439057,SO2,2,5,3
India,Assam,Nalbari,"Bata Chowk, Nalbari - PCBA",26-04-2025 18:00:00,26.446912,91.439057,CO,14,41,25
India,Assam,Silchar,"Tarapur, Silchar - PCBA",26-04-2025 18:00:00,24.82827,92.79525,PM10,38,60,49
India,Assam,Silchar,"Tarapur, Silchar - PCBA",26-04-2025 18:00:00,24.82827,92.79525,NO2,5,12,7
India,Assam,Silchar,"Tarapur, Silchar - PCBA",26-04-2025 18:00:00,24.82827,92.79525,CO,16,22,19
India,Assam,Silchar,"Tarapur, Silchar - PCBA",26-04-2025 18:00:00,24.82827,92.79525,OZONE,1,8,4
India,Assam,Sivasagar,"Girls College, Sivasagar - PCBA",26-04-2025 18:00:00,26.987634,94.636574,NH3,3,4,3
India,Assam,Sivasagar,"Girls College, Sivasagar - PCBA",26-04-2025 18:00:00,26.987634,94.636574,CO,14,41,18
India,Assam,Sivasagar,"Girls College, Sivasagar - PCBA",26-04-2025 18:00:00,26.987634,94.636574,OZONE,3,8,5
India,Bihar,Arrah,"New DM Office, Arrah - BSPCB",26-04-2025 18:00:00,25.5626095,84.663264,SO2,7,10,9
India,Andhra_Pradesh,Tirupati,"Vaikuntapuram, Tirupati - APPCB",26-04-2025 18:00:00,13.615387,79.40923,PM10,44,105,73
India,Andhra_Pradesh,Tirupati,"Vaikuntapuram, Tirupati - APPCB",26-04-2025 18:00:00,13.615387,79.40923,NO2,8,26,13
India,Andhra_Pradesh,Tirupati,"Vaikuntapuram, Tirupati - APPCB",26-04-2025 18:00:00,13.615387,79.40923,SO2,14,23,17
India,Andhra_Pradesh,Tirupati,"Vaikuntapuram, Tirupati - APPCB",26-04-2025 18:00:00,13.615387,79.40923,OZONE,21,35,29
India,Andhra_Pradesh,Vijayawada,"HB Colony, Vijayawada - APPCB",26-04-2025 18:00:00,16.536107,80.594233,NH3,3,6,4
India,Andhra_Pradesh,Vijayawada,"Kanuru, Vijayawada - APPCB",26-04-2025 18:00:00,16.486692,80.699436,PM10,45,60,52
India,Andhra_Pradesh,Vijayawada,"Kanuru, Vijayawada - APPCB",26-04-2025 18:00:00,16.486692,80.699436,OZONE,17,32,25
India,Andhra_Pradesh,Vijayawada,"Rajiv Gandhi Park, Vijayawada - APPCB",26-04-2025 18:00:00,16.509717,80.612222,CO,28,35,30
India,Bihar,Kishanganj,"SDM Office_Khagra, Kishanganj - BSPCB",26-04-2025 18:00:00,26.0881305,87.93840336,OZONE,11,20,16
India,Bihar,Manguraha,"Forest Rest House, Manguraha - BSPCB",26-04-2025 18:00:00,27.308328,84.531742,SO2,6,7,7
India,Bihar,Manguraha,"Forest Rest House, Manguraha - BSPCB",26-04-2025 18:00:00,27.308328,84.531742,OZONE,13,77,56
India,Bihar,Motihari,"Gandak Colony, Motihari - BSPCB",26-04-2025 18:00:00,26.63086,84.90051,PM10,105,500,176
India,Bihar,Munger,"Town Hall, Munger - BSPCB",26-04-2025 18:00:00,25.376776,86.471523,NH3,1,9,6
India,Bihar,Munger,"Town Hall, Munger - BSPCB",26-04-2025 18:00:00,25.376776,86.471523,SO2,NA,NA,NA
India,Bihar,Munger,"Town Hall, Munger - BSPCB",26-04-2025 18:00:00,25.376776,86.471523,CO,16,71,40
India,Andhra_Pradesh,Vijayawada,"Rajiv Nagar, Vijayawada - APPCB",26-04-2025 18:00:00,16.554731,80.64911,PM2.5,55,88,67
India,Andhra_Pradesh,Visakhapatnam,"GVM Corporation, Visakhapatnam - APPCB",26-04-2025 18:00:00,17.72,83.3,SO2,5,12,8
India,Arunachal_Pradesh,Naharlagun,"Naharlagun, Naharlagun - APSPCB",26-04-2025 18:00:00,27.103358,93.679645,PM10,NA,NA,NA
India,Arunachal_Pradesh,Naharlagun,"Naharlagun, Naharlagun - APSPCB",26-04-2025 18:00:00,27.103358,93.679645,SO2,NA,NA,NA
India,Assam,Byrnihat,"Central Academy for SFS, Byrnihat - PCBA",26-04-2025 18:00:00,26.071318,91.87488,CO,48,64,56
India,Andhra_Pradesh,Anantapur,"Gulzarpet, Anantapur - APPCB",26-04-2025 18:00:00,14.675886,77.593027,OZONE,11,37,32
India,Andhra_Pradesh,Chittoor,"Gangineni Cheruvu, Chittoor - APPCB",26-04-2025 18:00:00,13.20488,79.097889,PM2.5,50,300,121
India,Andhra_Pradesh,Chittoor,"Gangineni Cheruvu, Chittoor - APPCB",26-04-2025 18:00:00,13.20488,79.097889,PM10,45,154,86
India,Andhra_Pradesh,Chittoor,"Gangineni Cheruvu, Chittoor - APPCB",26-04-2025 18:00:00,13.20488,79.097889,SO2,12,15,13
India,Andhra_Pradesh,Chittoor,"Gangineni Cheruvu, Chittoor - APPCB",26-04-2025 18:00:00,13.20488,79.097889,OZONE,16,35,26
India,Andhra_Pradesh,Rajamahendravaram,"Anand Kala Kshetram, Rajamahendravaram - APPCB",26-04-2025 18:00:00,16.9872867,81.7363176,PM10,24,46,36
India,Bihar,Bihar Sharif,"D M Colony, Bihar Sharif - BSPCB",26-04-2025 18:00:00,25.204762,85.51496,PM10,NA,NA,NA
India,Bihar,Bihar Sharif,"D M Colony, Bihar Sharif - BSPCB",26-04-2025 18:00:00,25.204762,85.51496,CO,6,12,11
India,Bihar,Buxar,"Charitra Van, Buxar - BSPCB",26-04-2025 18:00:00,25.56752,83.966379,CO,19,29,26
India,Bihar,Chhapra,"Darshan Nagar, Chhapra - BSPCB",26-04-2025 18:00:00,25.7808257,84.7446768,NH3,5,7,6
India,Bihar,Chhapra,"Darshan Nagar, Chhapra - BSPCB",26-04-2025 18:00:00,25.7808257,84.7446768,CO,14,45,29
India,Bihar,Gaya,"Collectorate, Gaya - BSPCB",26-04-2025 18:00:00,24.7955,84.9994,PM2.5,28,277,105
India,Bihar,Begusarai,"Lohiyanagar, Begusarai - BSPCB",26-04-2025 18:00:00,25.42742023,86.13886079,NO2,113,250,147
India,Bihar,Begusarai,"Lohiyanagar, Begusarai - BSPCB",26-04-2025 18:00:00,25.42742023,86.13886079,NH3,11,12,12
India,Bihar,Bhagalpur,"DM Office_Kachari Chowk, Bhagalpur - BSPCB",26-04-2025 18:00:00,25.251013,86.989001,PM2.5,33,97,57
India,Bihar,Bhagalpur,"DM Office_Kachari Chowk, Bhagalpur - BSPCB",26-04-2025 18:00:00,25.251013,86.989001,CO,8,20,11
India,Bihar,Bhagalpur,"Mayaganj, Bhagalpur - BSPCB",26-04-2025 18:00:00,25.265194,87.012947,PM10,65,185,99
India,Assam,Guwahati,"LGBI Airport, Guwahati - PCBA",26-04-2025 18:00:00,26.10887,91.589544,CO,26,45,34
India,Assam,Nagaon,"Christianpatty, Nagaon - PCBA",26-04-2025 18:00:00,26.349082,92.68449,PM10,24,500,145
India,Assam,Nagaon,"Christianpatty, Nagaon - PCBA",26-04-2025 18:00:00,26.349082,92.68449,NO2,1,25,5
India,Assam,Nalbari,"Bata Chowk, Nalbari - PCBA",26-04-2025 18:00:00,26.446912,91.439057,NO2,1,6,3
India,Andaman and Nicobar,Sri Vijaya Puram,"Police Line, Sri Vijaya Puram - ANPCC",26-04-2025 18:00:00,11.654054,92.734055,SO2,1,32,14
India,Andhra_Pradesh,Amaravati,"Secretariat, Amaravati - APPCB",26-04-2025 18:00:00,16.5150833,80.5181667,PM2.5,23,64,38
India,Bihar,Patna,"Govt. High School Shikarpur, Patna - BSPCB",26-04-2025 18:00:00,25.592539,85.227158,OZONE,12,191,191
India,Bihar,Patna,"IGSC Planetarium Complex, Patna - BSPCB",26-04-2025 18:00:00,25.610369,85.132568,SO2,22,26,24
India,Bihar,Patna,"IGSC Planetarium Complex, Patna - BSPCB",26-04-2025 18:00:00,25.610369,85.132568,OZONE,60,61,60
India,Bihar,Patna,"Muradpur, Patna - BSPCB",26-04-2025 18:00:00,25.619651,85.147382,OZONE,6,41,37
India,Bihar,Patna,"Rajbansi Nagar, Patna - BSPCB",26-04-2025 18:00:00,25.599486,85.113666,NO2,18,98,54
India,Bihar,Patna,"Rajbansi Nagar, Patna - BSPCB",26-04-2025 18:00:00,25.599486,85.113666,NH3,3,20,8
India,Bihar,Patna,"Samanpura, Patna - BSPCB",26-04-2025 18:00:00,25.596727,85.085624,PM10,81,489,192
India,Bihar,Patna,"Samanpura, Patna - BSPCB",26-04-2025 18:00:00,25.596727,85.085624,CO,5,112,12
India,Bihar,Patna,"Samanpura, Patna - BSPCB",26-04-2025 18:00:00,25.596727,85.085624,OZONE,79,92,86
India,Chhattisgarh,Kunjemura,"OP Jindal School, Kunjemura - CECB",26-04-2025 18:00:00,22.12665,83.483212,NH3,2,2,2
India,Chhattisgarh,Kunjemura,"OP Jindal School, Kunjemura - CECB",26-04-2025 18:00:00,22.12665,83.483212,CO,32,85,47
India,Chhattisgarh,Milupara,"Govt. Higher Secondary School, Milupara - CECB",26-04-2025 18:00:00,22.1910172,83.5197009,PM10,83,401,138
India,Chhattisgarh,Milupara,"Govt. Higher Secondary School, Milupara - CECB",26-04-2025 18:00:00,22.1910172,83.5197009,NO2,18,83,42
India,Chhattisgarh,Milupara,"Govt. Higher Secondary School, Milupara - CECB",26-04-2025 18:00:00,22.1910172,83.5197009,CO,16,67,22
India,Chhattisgarh,Raipur,"AIIMS, Raipur - CECB",26-04-2025 18:00:00,21.258815,81.578979,PM2.5,32,56,44
India,Chhattisgarh,Raipur,"AIIMS, Raipur - CECB",26-04-2025 18:00:00,21.258815,81.578979,CO,22,43,27
India,Chhattisgarh,Raipur,"Bhatagaon New ISBT, Raipur - CECB",26-04-2025 18:00:00,21.219665,81.630094,PM2.5,NA,NA,NA
India,Delhi,Delhi,"CRRI Mathura Road, Delhi - IMD",26-04-2025 18:00:00,28.5512005,77.2735737,CO,17,146,41
India,Delhi,Delhi,"Chandni Chowk, Delhi - IITM",26-04-2025 18:00:00,28.656756,77.227234,CO,57,119,57
India,Delhi,Delhi,"DTU, Delhi - CPCB",26-04-2025 18:00:00,28.7500499,77.1112615,CO,22,86,46
India,Delhi,Delhi,"Dr. Karni Singh Shooting Range, Delhi - DPCC",26-04-2025 18:00:00,28.498571,77.26484,PM10,101,311,196
India,Delhi,Delhi,"Dr. Karni Singh Shooting Range, Delhi - DPCC",26-04-2025 18:00:00,28.498571,77.26484,CO,2,116,15
India,Delhi,Delhi,"Dwarka-Sector 8, Delhi - DPCC ",26-04-2025 18:00:00,28.5710274,77.0719006,PM2.5,33,396,233
India,Delhi,Delhi,"Dwarka-Sector 8, Delhi - DPCC ",26-04-2025 18:00:00,28.5710274,77.0719006,SO2,13,36,24
India,Chhattisgarh,Raipur,"Bhatagaon New ISBT, Raipur - CECB",26-04-2025 18:00:00,21.219665,81.630094,SO2,NA,NA,NA
India,Chhattisgarh,Raipur,"Bhatagaon New ISBT, Raipur - CECB",26-04-2025 18:00:00,21.219665,81.630094,OZONE,NA,NA,NA
India,Chhattisgarh,Raipur,"Krishak Nagar, Raipur - CECB",26-04-2025 18:00:00,21.237755,81.705301,NO2,10,19,13
India,Chhattisgarh,Raipur,"Krishak Nagar, Raipur - CECB",26-04-2025 18:00:00,21.237755,81.705301,NH3,7,7,7
India,Chhattisgarh,Raipur,"Krishak Nagar, Raipur - CECB",26-04-2025 18:00:00,21.237755,81.705301,OZONE,9,60,19
India,Chhattisgarh,Tumidih,"OP Jindal Industrial Park, Tumidih - CECB",26-04-2025 18:00:00,22.06631475,83.33820077,PM2.5,65,309,175
India,Chhattisgarh,Tumidih,"OP Jindal Industrial Park, Tumidih - CECB",26-04-2025 18:00:00,22.06631475,83.33820077,CO,24,64,27
India,Chhattisgarh,Tumidih,"OP Jindal Industrial Park, Tumidih - CECB",26-04-2025 18:00:00,22.06631475,83.33820077,OZONE,5,82,68
India,Delhi,Delhi,"Anand Vihar, Delhi - DPCC",26-04-2025 18:00:00,28.647622,77.315809,PM2.5,8,468,260
India,Delhi,Delhi,"Aya Nagar, Delhi - IMD",26-04-2025 18:00:00,28.4706914,77.1099364,PM10,95,482,200
India,Delhi,Delhi,"Aya Nagar, Delhi - IMD",26-04-2025 18:00:00,28.4706914,77.1099364,CO,14,113,41
India,Delhi,Delhi,"Bawana, Delhi - DPCC",26-04-2025 18:00:00,28.7762,77.051074,NO2,8,102,57
India,Delhi,Delhi,"Burari Crossing, Delhi - IMD",26-04-2025 18:00:00,28.7256504,77.2011573,PM2.5,26,355,226
India,Delhi,Delhi,"Burari Crossing, Delhi - IMD",26-04-2025 18:00:00,28.7256504,77.2011573,PM10,76,427,257
India,Delhi,Delhi,"Burari Crossing, Delhi - IMD",26-04-2025 18:00:00,28.7256504,77.2011573,NO2,35,108,66
India,Chandigarh,Chandigarh,"Sector 22, Chandigarh - CPCC",26-04-2025 18:00:00,30.735567,76.775714,NH3,15,22,18
India,Chandigarh,Chandigarh,"Sector 22, Chandigarh - CPCC",26-04-2025 18:00:00,30.735567,76.775714,CO,34,102,41
India,Chandigarh,Chandigarh,"Sector 22, Chandigarh - CPCC",26-04-2025 18:00:00,30.735567,76.775714,OZONE,3,235,147
India,Chandigarh,Chandigarh,"Sector-25, Chandigarh - CPCC",26-04-2025 18:00:00,30.751462,76.762879,NH3,18,28,23
India,Chandigarh,Chandigarh,"Sector-53, Chandigarh - CPCC",26-04-2025 18:00:00,30.719859,76.738637,NO2,10,111,52
India,Chandigarh,Chandigarh,"Sector-53, Chandigarh - CPCC",26-04-2025 18:00:00,30.719859,76.738637,NH3,2,4,3
India,Chandigarh,Chandigarh,"Sector-53, Chandigarh - CPCC",26-04-2025 18:00:00,30.719859,76.738637,SO2,10,31,18
India,Chandigarh,Chandigarh,"Sector-53, Chandigarh - CPCC",26-04-2025 18:00:00,30.719859,76.738637,CO,30,104,36
India,Bihar,Rajgir,"Dangi Tola, Rajgir - BSPCB",26-04-2025 18:00:00,25.0328,85.41948,PM2.5,NA,NA,NA
India,Bihar,Saharsa,"Police Line, Saharsa - BSPCB",26-04-2025 18:00:00,25.892357,86.590325,SO2,4,15,10
India,Bihar,Samastipur,"DM Office_Kasipur, Samastipur - BSPCB",26-04-2025 18:00:00,25.859655,85.77944,PM10,71,197,125
India,Bihar,Sasaram,"Dada Peer, Sasaram - BSPCB",26-04-2025 18:00:00,24.952822,84.002396,NH3,3,6,4
India,Bihar,Muzaffarpur,"MIT-Daudpur Kothi, Muzaffarpur - BSPCB",26-04-2025 18:00:00,26.1403345,85.3650192,PM10,26,64,45
India,Bihar,Patna,"DRM Office Danapur, Patna - BSPCB",26-04-2025 18:00:00,25.586562,85.043586,NO2,29,36,31
India,Bihar,Patna,"Govt. High School Shikarpur, Patna - BSPCB",26-04-2025 18:00:00,25.592539,85.227158,NH3,4,11,8
India,Bihar,Patna,"Govt. High School Shikarpur, Patna - BSPCB",26-04-2025 18:00:00,25.592539,85.227158,SO2,4,14,9
India,Chhattisgarh,Bhilai,"Civic Center, Bhilai - Bhilai Steel Plant",26-04-2025 18:00:00,21.185571,81.343175,PM10,27,58,38
India,Chhattisgarh,Bhilai,"Hathkhoj, Bhilai - CECB",26-04-2025 18:00:00,21.224231,81.40835,NO2,15,99,32
India,Gujarat,Ahmedabad,"Gyaspur, Ahmedabad - IITM",26-04-2025 18:00:00,22.977134,72.553024,OZONE,9,62,37
India,Gujarat,Ahmedabad,"Maninagar, Ahmedabad - GPCB",26-04-2025 18:00:00,23.002657,72.591912,PM2.5,33,123,73
India,Gujarat,Ahmedabad,"Maninagar, Ahmedabad - GPCB",26-04-2025 18:00:00,23.002657,72.591912,PM10,87,140,118
India,Gujarat,Ahmedabad,"Maninagar, Ahmedabad - GPCB",26-04-2025 18:00:00,23.002657,72.591912,OZONE,6,90,62
India,Gujarat,Ahmedabad,"Raikhad, Ahmedabad - IITM",26-04-2025 18:00:00,23.020509,72.579261,PM10,36,78,56
India,Gujarat,Ahmedabad,"Raikhad, Ahmedabad - IITM",26-04-2025 18:00:00,23.020509,72.579261,NH3,4,17,11
India,Gujarat,Ahmedabad,"Raikhad, Ahmedabad - IITM",26-04-2025 18:00:00,23.020509,72.579261,CO,8,38,17
India,Gujarat,Ahmedabad,"Rakhial, Ahmedabad - IITM",26-04-2025 18:00:00,23.016834,72.625775,PM10,77,124,96
India,Gujarat,Ahmedabad,"SAC ISRO Satellite, Ahmedabad - IITM",26-04-2025 18:00:00,23.023389,72.515201,OZONE,12,73,58
India,Delhi,Delhi,"Dwarka-Sector 8, Delhi - DPCC ",26-04-2025 18:00:00,28.5710274,77.0719006,CO,17,165,41
India,Delhi,Delhi,"Dwarka-Sector 8, Delhi - DPCC ",26-04-2025 18:00:00,28.5710274,77.0719006,OZONE,2,96,76
India,Delhi,Delhi,"IGI Airport (T3), Delhi - IMD",26-04-2025 18:00:00,28.5627763,77.1180053,NO2,82,156,129
India,Delhi,Delhi,"IHBAS, Dilshad Garden, Delhi - CPCB",26-04-2025 18:00:00,28.6811736,77.3025234,NO2,2,69,30
India,Delhi,Delhi,"ITO, Delhi - CPCB",26-04-2025 18:00:00,28.628624,77.24106,PM2.5,51,340,217
India,Delhi,Delhi,"ITO, Delhi - CPCB",26-04-2025 18:00:00,28.628624,77.24106,PM10,61,221,154
India,Delhi,Delhi,"Jahangirpuri, Delhi - DPCC",26-04-2025 18:00:00,28.73282,77.170633,NH3,1,10,7
India,Delhi,Delhi,"Sri Aurobindo Marg, Delhi - DPCC",26-04-2025 18:00:00,28.531346,77.190156,PM10,77,289,156
India,Delhi,Delhi,"Vivek Vihar, Delhi - DPCC",26-04-2025 18:00:00,28.672342,77.31526,SO2,3,35,17
India,Delhi,Delhi,"Vivek Vihar, Delhi - DPCC",26-04-2025 18:00:00,28.672342,77.31526,OZONE,2,287,224
India,Delhi,Delhi,"Wazirpur, Delhi - DPCC",26-04-2025 18:00:00,28.699793,77.165453,CO,10,106,50
India,Gujarat,Ahmedabad,"Chandkheda, Ahmedabad - IITM",26-04-2025 18:00:00,23.107969,72.574648,PM2.5,63,168,103
India,Gujarat,Ahmedabad,"Chandkheda, Ahmedabad - IITM",26-04-2025 18:00:00,23.107969,72.574648,NO2,43,66,59
India,Gujarat,Ahmedabad,"Chandkheda, Ahmedabad - IITM",26-04-2025 18:00:00,23.107969,72.574648,NH3,2,3,3
India,Gujarat,Ahmedabad,"SVPI Airport Hansol, Ahmedabad - IITM",26-04-2025 18:00:00,23.076793,72.627874,CO,16,30,26
India,Gujarat,Ahmedabad,"Sardar Vallabhbhai Patel Stadium, Ahmedabad - IITM",26-04-2025 18:00:00,23.04307,72.562968,NH3,14,21,17
India,Gujarat,Ahmedabad,"Sardar Vallabhbhai Patel Stadium, Ahmedabad - IITM",26-04-2025 18:00:00,23.04307,72.562968,SO2,8,114,31
India,Gujarat,Ankleshwar,"GIDC, Ankleshwar - GPCB",26-04-2025 18:00:00,21.613267,73.010555,PM2.5,6,45,35
India,Gujarat,Ankleshwar,"GIDC, Ankleshwar - GPCB",26-04-2025 18:00:00,21.613267,73.010555,NO2,72,129,85
India,Gujarat,Gandhinagar,"IIPHG Lekawada, Gandhinagar - IITM",26-04-2025 18:00:00,23.243639,72.68994,CO,1,51,13
India,Delhi,Delhi,"Jawaharlal Nehru Stadium, Delhi - DPCC",26-04-2025 18:00:00,28.58028,77.233829,PM10,NA,NA,NA
India,Delhi,Delhi,"Lodhi Road, Delhi - IMD",26-04-2025 18:00:00,28.5918245,77.2273074,NO2,13,58,33
India,Delhi,Delhi,"Major Dhyan Chand National Stadium, Delhi - DPCC",26-04-2025 18:00:00,28.611281,77.237738,NH3,14,20,17
India,Delhi,Delhi,"Major Dhyan Chand National Stadium, Delhi - DPCC",26-04-2025 18:00:00,28.611281,77.237738,CO,2,131,31
India,Delhi,Delhi,"Major Dhyan Chand National Stadium, Delhi - DPCC",26-04-2025 18:00:00,28.611281,77.237738,OZONE,1,310,155
India,Delhi,Delhi,"Mandir Marg, Delhi - DPCC",26-04-2025 18:00:00,28.636429,77.201067,SO2,5,52,28
India,Delhi,Delhi,"R K Puram, Delhi - DPCC",26-04-2025 18:00:00,28.563262,77.186937,PM10,80,498,277
India,Delhi,Delhi,"R K Puram, Delhi - DPCC",26-04-2025 18:00:00,28.563262,77.186937,NH3,3,8,6
India,Delhi,Delhi,"Rohini, Delhi - DPCC",26-04-2025 18:00:00,28.732528,77.11992,NH3,8,18,11
India,Delhi,Delhi,"Shadipur, Delhi - CPCB",26-04-2025 18:00:00,28.6514781,77.1473105,CO,4,82,47
India,Delhi,Delhi,"Sirifort, Delhi - CPCB",26-04-2025 18:00:00,28.5504249,77.2159377,CO,14,126,40
India,Delhi,Delhi,"Sonia Vihar, Delhi - DPCC",26-04-2025 18:00:00,28.710508,77.249485,NH3,6,10,8
India,Delhi,Delhi,"NSIT Dwarka, Delhi - CPCB",26-04-2025 18:00:00,28.60909,77.0325413,PM10,NA,NA,NA
India,Delhi,Delhi,"NSIT Dwarka, Delhi - CPCB",26-04-2025 18:00:00,28.60909,77.0325413,SO2,6,46,25
India,Delhi,Delhi,"Najafgarh, Delhi - DPCC",26-04-2025 18:00:00,28.570173,76.933762,NO2,42,146,92
India,Delhi,Delhi,"Narela, Delhi - DPCC",26-04-2025 18:00:00,28.822836,77.101981,PM2.5,37,500,291
India,Delhi,Delhi,"Narela, Delhi - DPCC",26-04-2025 18:00:00,28.822836,77.101981,PM10,104,500,320
India,Delhi,Delhi,"Nehru Nagar, Delhi - DPCC",26-04-2025 18:00:00,28.56789,77.250515,CO,2,107,8
India,Gujarat,Gandhinagar,"Sector-10, Gandhinagar - GPCB",26-04-2025 18:00:00,23.221714,72.654328,OZONE,36,38,37
India,Gujarat,Surat,"Science Center, Surat - SMC",26-04-2025 18:00:00,21.170046,72.795405,NO2,11,14,12
India,Gujarat,Surat,"Science Center, Surat - SMC",26-04-2025 18:00:00,21.170046,72.795405,SO2,39,41,40
India,Gujarat,Vapi,"Phase-1 GIDC, Vapi - GPCB",26-04-2025 18:00:00,20.362421,72.918013,NH3,10,10,10
India,Gujarat,Vatva,"Phase-4 GIDC, Vatva - GPCB",26-04-2025 18:00:00,22.969611,72.6435,NH3,NA,NA,NA
India,Delhi,Delhi,"Patparganj, Delhi - DPCC",26-04-2025 18:00:00,28.623763,77.287209,NH3,6,30,10
India,Delhi,Delhi,"Punjabi Bagh, Delhi - DPCC",26-04-2025 18:00:00,28.674045,77.131023,NO2,NA,NA,NA
India,Delhi,Delhi,"Pusa, Delhi - DPCC",26-04-2025 18:00:00,28.639652,77.146275,PM2.5,37,352,142
India,Karnataka,Hubballi,"Lingaraj Nagar, Hubballi - KSPCB",26-04-2025 18:00:00,15.3714823,75.1160168,PM10,46,49,47
India,Karnataka,Hubballi,"Lingaraj Nagar, Hubballi - KSPCB",26-04-2025 18:00:00,15.3714823,75.1160168,NH3,1,1,1
India,Karnataka,Kalaburagi,"Mahatma Basaveswar Colony, Kalaburgi - KSPCB",26-04-2025 18:00:00,17.336318,76.847397,PM2.5,19,51,35
India,Karnataka,Madikeri,"Stuart Hill, Madikeri - KSPCB",26-04-2025 18:00:00,12.415911,75.73505,PM10,31,50,42
India,Karnataka,Madikeri,"Stuart Hill, Madikeri - KSPCB",26-04-2025 18:00:00,12.415911,75.73505,NH3,1,1,1
India,Karnataka,Madikeri,"Stuart Hill, Madikeri - KSPCB",26-04-2025 18:00:00,12.415911,75.73505,SO2,7,7,7
India,Karnataka,Madikeri,"Stuart Hill, Madikeri - KSPCB",26-04-2025 18:00:00,12.415911,75.73505,CO,11,19,15
India,Karnataka,Mysuru,"Hebbal 1st Stage, Mysuru - KSPCB",26-04-2025 18:00:00,12.21041,76.37376,PM10,28,68,44
India,Karnataka,Mysuru,"Hebbal 1st Stage, Mysuru - KSPCB",26-04-2025 18:00:00,12.21041,76.37376,NH3,3,6,5
India,Karnataka,Bengaluru,"RVCE-Mailasandra, Bengaluru - KSPCB",26-04-2025 18:00:00,12.921418,77.502466,NO2,16,17,17
India,Karnataka,Bengaluru,"Sanegurava Halli, Bengaluru - KSPCB",26-04-2025 18:00:00,12.990328,77.5431385,CO,4,108,32
India,Karnataka,Bengaluru,"Shivapura_Peenya, Bengaluru - KSPCB",26-04-2025 18:00:00,13.0246342,77.5080115,PM10,28,418,80
India,Karnataka,Bengaluru,"Silk Board, Bengaluru - KSPCB",26-04-2025 18:00:00,12.917348,77.622813,NO2,NA,NA,NA
India,Karnataka,Bengaluru,"Silk Board, Bengaluru - KSPCB",26-04-2025 18:00:00,12.917348,77.622813,OZONE,27,135,112
India,Karnataka,Chamarajanagar,"Urban, Chamarajanagar - KSPCB",26-04-2025 18:00:00,11.55358,76.55521,CO,22,120,22
India,Karnataka,Chikkaballapur,"Chikkaballapur Rural, Chikkaballapur - KSPCB",26-04-2025 18:00:00,13.428828,77.731418,PM10,50,110,76
India,Kerala,Thiruvananthapuram,"Kariavattom, Thiruvananthapuram - Kerala PCB",26-04-2025 18:00:00,8.5637,76.8865,PM10,61,68,65
India,Kerala,Thiruvananthapuram,"Plammoodu, Thiruvananthapuram - Kerala PCB",26-04-2025 18:00:00,8.5149093,76.9435879,PM2.5,20,74,38
India,Kerala,Thrissur,"Corporation Ground, Thrissur - Kerala PCB",26-04-2025 18:00:00,10.5324,76.2159,SO2,1,1,1
India,Madhya Pradesh,Bhopal,"Idgah Hills, Bhopal - MPPCB",26-04-2025 18:00:00,23.264759,77.381568,PM2.5,30,97,61
India,Madhya Pradesh,Bhopal,"Idgah Hills, Bhopal - MPPCB",26-04-2025 18:00:00,23.264759,77.381568,PM10,69,191,110
India,Madhya Pradesh,Bhopal,"Paryavaran Parisar, Bhopal - MPPCB",26-04-2025 18:00:00,23.210494,77.425409,PM2.5,18,97,51
India,Madhya Pradesh,Bhopal,"Paryavaran Parisar, Bhopal - MPPCB",26-04-2025 18:00:00,23.210494,77.425409,PM10,55,120,87
India,Karnataka,Chikkaballapur,"Chikkaballapur Rural, Chikkaballapur - KSPCB",26-04-2025 18:00:00,13.428828,77.731418,NO2,12,54,27
India,Karnataka,Chikkamagaluru,"Kalyana Nagara, Chikkamagaluru - KSPCB",26-04-2025 18:00:00,13.328028,75.797056,PM2.5,31,62,45
India,Karnataka,Davanagere,"Devaraj Urs Badavane, Davanagere - KSPCB",26-04-2025 18:00:00,14.4758,75.9052,NH3,2,55,4
India,Karnataka,Dharwad,"Kalabhavan, Dharwad - KSPCB",26-04-2025 18:00:00,15.459706,75.008381,NO2,22,22,22
India,Karnataka,Gadag,"Panchal Nagar, Gadag - KSPCB",26-04-2025 18:00:00,15.411456,75.638133,NO2,7,25,15
India,Karnataka,Gadag,"Panchal Nagar, Gadag - KSPCB",26-04-2025 18:00:00,15.411456,75.638133,SO2,15,26,18
India,Haryana,Panchgaon,"Amity University, Panchgaon - IITM",26-04-2025 18:00:00,28.3153,76.9143,NH3,8,12,10
India,Jammu_and_Kashmir,Srinagar,"Rajbagh, Srinagar - JKSPCB",26-04-2025 18:00:00,34.066206,74.81982,PM10,44,65,53
India,Jharkhand,Dhanbad,"Sardar Patel Nagar, Dhanbad - JSPCB",26-04-2025 18:00:00,23.80569,86.44268,PM2.5,NA,NA,NA
India,Jharkhand,Dhanbad,"Sardar Patel Nagar, Dhanbad - JSPCB",26-04-2025 18:00:00,23.80569,86.44268,NO2,127,128,127
India,Karnataka,Belgaum,"Ramteerth Nagar, Belgaum - KSPCB",26-04-2025 18:00:00,15.888653,74.541751,CO,20,30,23
India,Karnataka,Bengaluru,"BTM Layout, Bengaluru - CPCB",26-04-2025 18:00:00,12.9135218,77.5950804,PM10,NA,NA,NA
India,Karnataka,Bengaluru,"BTM Layout, Bengaluru - CPCB",26-04-2025 18:00:00,12.9135218,77.5950804,NO2,NA,NA,NA
India,Karnataka,Bengaluru,"BTM Layout, Bengaluru - CPCB",26-04-2025 18:00:00,12.9135218,77.5950804,CO,22,30,26
India,Karnataka,Bengaluru,"Bapuji Nagar, Bengaluru - KSPCB",26-04-2025 18:00:00,12.951913,77.539784,CO,16,78,24
India,Karnataka,Bengaluru,"Bapuji Nagar, Bengaluru - KSPCB",26-04-2025 18:00:00,12.951913,77.539784,OZONE,28,115,87
India,Karnataka,Bengaluru,"City Railway Station, Bengaluru - KSPCB",26-04-2025 18:00:00,12.9756843,77.5660749,PM10,92,105,98
India,Karnataka,Bengaluru,"Hombegowda Nagar, Bengaluru - KSPCB",26-04-2025 18:00:00,12.938539,77.5901,PM2.5,22,50,33
India,Karnataka,Bengaluru,"Hombegowda Nagar, Bengaluru - KSPCB",26-04-2025 18:00:00,12.938539,77.5901,CO,14,76,17
India,Karnataka,Bengaluru,"Jayanagar 5th Block, Bengaluru - KSPCB",26-04-2025 18:00:00,12.920984,77.584908,PM2.5,30,65,46
India,Karnataka,Bengaluru,"Jigani, Bengaluru - KSPCB",26-04-2025 18:00:00,12.7816279,77.6299145,OZONE,24,25,24
India,Karnataka,Bengaluru,"Peenya, Bengaluru - CPCB",26-04-2025 18:00:00,13.0270199,77.494094,PM2.5,4,93,40
India,Karnataka,Bengaluru,"Peenya, Bengaluru - CPCB",26-04-2025 18:00:00,13.0270199,77.494094,PM10,53,109,81
India,Karnataka,Bengaluru,"Peenya, Bengaluru - CPCB",26-04-2025 18:00:00,13.0270199,77.494094,CO,26,82,44
India,Karnataka,Ramanagara,"Vijay Nagar, Ramanagara - KSPCB",26-04-2025 18:00:00,12.733409,77.298051,OZONE,10,59,48
India,Karnataka,Yadgir,"Collector Office, Yadgir - KSPCB",26-04-2025 18:00:00,16.7602,77.1428,NO2,14,61,43
India,Karnataka,Yadgir,"Collector Office, Yadgir - KSPCB",26-04-2025 18:00:00,16.7602,77.1428,NH3,2,3,2
India,Karnataka,Yadgir,"Collector Office, Yadgir - KSPCB",26-04-2025 18:00:00,16.7602,77.1428,CO,8,30,17
India,Madhya Pradesh,Bhopal,"Paryavaran Parisar, Bhopal - MPPCB",26-04-2025 18:00:00,23.210494,77.425409,NO2,9,62,19
India,Maharashtra,Amravati,"Shivneri Colony, Amravati - MPCB",26-04-2025 18:00:00,20.9402359,77.7895248,OZONE,17,93,80
India,Maharashtra,Amravati,"Shri Shivaji Science College, Amaravati - MPCB",26-04-2025 18:00:00,20.939198,77.765701,PM2.5,6,68,51
India,Maharashtra,Amravati,"Shri Shivaji Science College, Amaravati - MPCB",26-04-2025 18:00:00,20.939198,77.765701,PM10,26,109,74
India,Maharashtra,Amravati,"Shri Shivaji Science College, Amaravati - MPCB",26-04-2025 18:00:00,20.939198,77.765701,NH3,2,6,3
India,Maharashtra,Amravati,"Shri Shivaji Science College, Amaravati - MPCB",26-04-2025 18:00:00,20.939198,77.765701,CO,13,66,16
India,Maharashtra,Aurangabad,"MIDC Chilkalthana, Aurangabad - MPCB",26-04-2025 18:00:00,19.87562,75.38731,PM2.5,27,51,40
India,Maharashtra,Aurangabad,"MIDC Chilkalthana, Aurangabad - MPCB",26-04-2025 18:00:00,19.87562,75.38731,NH3,1,2,1
India,Maharashtra,Aurangabad,"More Chowk Waluj, Aurangabad - MPCB",26-04-2025 18:00:00,19.8389439,75.244448,SO2,24,36,28
India,Maharashtra,Badlapur,"Katrap, Badlapur - MPCB",26-04-2025 18:00:00,19.16485,73.23409,PM2.5,24,89,66
India,Maharashtra,Badlapur,"Katrap, Badlapur - MPCB",26-04-2025 18:00:00,19.16485,73.23409,NH3,2,6,4
India,Maharashtra,Badlapur,"Katrap, Badlapur - MPCB",26-04-2025 18:00:00,19.16485,73.23409,OZONE,3,107,79
India,Madhya Pradesh,Bhopal,"Paryavaran Parisar, Bhopal - MPPCB",26-04-2025 18:00:00,23.210494,77.425409,OZONE,42,71,64
India,Madhya Pradesh,Bhopal,"T T Nagar, Bhopal - MPPCB",26-04-2025 18:00:00,23.233584,77.400574,PM2.5,22,70,47
India,Madhya Pradesh,Bhopal,"T T Nagar, Bhopal - MPPCB",26-04-2025 18:00:00,23.233584,77.400574,PM10,64,137,113
India,Madhya Pradesh,Bhopal,"T T Nagar, Bhopal - MPPCB",26-04-2025 18:00:00,23.233584,77.400574,SO2,2,28,20
India,Madhya Pradesh,Damoh,"Shrivastav Colony, Damoh - MPPCB",26-04-2025 18:00:00,23.81748678,79.446246,PM10,NA,NA,NA
India,Madhya Pradesh,Damoh,"Shrivastav Colony, Damoh - MPPCB",26-04-2025 18:00:00,23.81748678,79.446246,SO2,NA,NA,NA
India,Madhya Pradesh,Dewas,"Bhopal Chauraha, Dewas - MPPCB",26-04-2025 18:00:00,22.9682591,76.064118,PM2.5,29,94,59
India,Madhya Pradesh,Dewas,"Bhopal Chauraha, Dewas - MPPCB",26-04-2025 18:00:00,22.9682591,76.064118,NO2,41,96,71
India,Madhya Pradesh,Dewas,"Bhopal Chauraha, Dewas - MPPCB",26-04-2025 18:00:00,22.9682591,76.064118,NH3,5,10,8
India,Madhya Pradesh,Dewas,"Bhopal Chauraha, Dewas - MPPCB",26-04-2025 18:00:00,22.9682591,76.064118,SO2,20,93,69
India,Madhya Pradesh,Dewas,"Bhopal Chauraha, Dewas - MPPCB",26-04-2025 18:00:00,22.9682591,76.064118,OZONE,24,91,63
India,Madhya Pradesh,Mandideep,"Sector-D Industrial Area, Mandideep - MPPCB",26-04-2025 18:00:00,23.10844,77.511428,NO2,NA,NA,NA
India,Madhya Pradesh,Mandideep,"Sector-D Industrial Area, Mandideep - MPPCB",26-04-2025 18:00:00,23.10844,77.511428,OZONE,71,78,73
India,Madhya Pradesh,Pithampur,"Sector-2 Industrial Area, Pithampur - MPPCB",26-04-2025 18:00:00,22.624758,75.675238,PM2.5,45,260,89
India,Madhya Pradesh,Pithampur,"Sector-2 Industrial Area, Pithampur - MPPCB",26-04-2025 18:00:00,22.624758,75.675238,SO2,16,88,34
India,Madhya Pradesh,Ratlam,"Shasthri Nagar, Ratlam - IPCA Lab",26-04-2025 18:00:00,23.331731,75.045981,PM10,68,153,113
India,Madhya Pradesh,Sagar,"Civil Lines, Sagar - MPPCB",26-04-2025 18:00:00,23.838586,78.759431,PM2.5,17,95,57
India,Madhya Pradesh,Sagar,"Civil Lines, Sagar - MPPCB",26-04-2025 18:00:00,23.838586,78.759431,SO2,7,13,10
India,Madhya Pradesh,Sagar,"Deen Dayal Nagar, Sagar - MPPCB",26-04-2025 18:00:00,23.8640158,78.80289321,PM2.5,7,81,51
India,Madhya Pradesh,Singrauli,"Suryakiran Bhawan NCL, Singrauli - MPPCB",26-04-2025 18:00:00,24.10897,82.64558,CO,16,36,19
India,Madhya Pradesh,Singrauli,"Suryakiran Bhawan NCL, Singrauli - MPPCB",26-04-2025 18:00:00,24.10897,82.64558,OZONE,1,156,121
India,Madhya Pradesh,Ujjain,"Mahakaleshwar Temple, Ujjain - MPPCB",26-04-2025 18:00:00,23.182719,75.768218,PM10,34,96,56
India,Maharashtra,Ahmednagar,"Tarakpur, Ahmednagar - MPCB",26-04-2025 18:00:00,19.10122,74.73339,SO2,2,7,5
India,Maharashtra,Akola,"Ramdaspeth, Akola - MPCB",26-04-2025 18:00:00,20.719516,77.000253,NH3,4,10,6
India,Maharashtra,Amravati,"Shivneri Colony, Amravati - MPCB",26-04-2025 18:00:00,20.9402359,77.7895248,PM10,58,100,76
India,Madhya Pradesh,Indore,"Maguda Nagar, Indore - IMC",26-04-2025 18:00:00,22.7524,75.8872,SO2,33,40,35
India,Madhya Pradesh,Indore,"Maguda Nagar, Indore - IMC",26-04-2025 18:00:00,22.7524,75.8872,CO,30,34,32
India,Madhya Pradesh,Indore,"Residency Area, Indore - IMC",26-04-2025 18:00:00,22.7084,75.8815,SO2,32,34,33
India,Madhya Pradesh,Indore,"Vijay Nagar Scheme-78, Indore - Glenmark",26-04-2025 18:00:00,22.76726,75.8871,NO2,27,28,28
India,Madhya Pradesh,Jabalpur,"Govindh Bhavan Colony, Jabalpur - JMC",26-04-2025 18:00:00,23.163174,79.973061,PM2.5,15,82,37
India,Madhya Pradesh,Jabalpur,"Govindh Bhavan Colony, Jabalpur - JMC",26-04-2025 18:00:00,23.163174,79.973061,PM10,55,128,79
India,Madhya Pradesh,Jabalpur,"Govindh Bhavan Colony, Jabalpur - JMC",26-04-2025 18:00:00,23.163174,79.973061,NO2,33,51,38
India,Maharashtra,Belapur,"CBD Belapur, Belapur - MPCB",26-04-2025 18:00:00,19.0243902,73.0406721,PM10,62,94,74
India,Maharashtra,Belapur,"CBD Belapur, Belapur - MPCB",26-04-2025 18:00:00,19.0243902,73.0406721,NO2,3,6,4
India,Maharashtra,Belapur,"CBD Belapur, Belapur - MPCB",26-04-2025 18:00:00,19.0243902,73.0406721,NH3,5,8,6
India,Maharashtra,Belapur,"CBD Belapur, Belapur - MPCB",26-04-2025 18:00:00,19.0243902,73.0406721,CO,12,40,22
India,Maharashtra,Bhiwandi,"Gokul Nagar, Bhiwandi - MPCB",26-04-2025 18:00:00,19.309073,73.057223,PM2.5,48,168,73
India,Maharashtra,Bhiwandi,"Gokul Nagar, Bhiwandi - MPCB",26-04-2025 18:00:00,19.309073,73.057223,PM10,65,154,93
India,Maharashtra,Chandrapur,"MIDC Khutala, Chandrapur - MPCB",26-04-2025 18:00:00,19.9775302,79.2337086,NH3,2,4,3
India,Madhya Pradesh,Jabalpur,"Gupteshwar, Jabalpur - JMC",26-04-2025 18:00:00,23.142888,79.916147,OZONE,21,88,69
India,Madhya Pradesh,Jabalpur,"Marhatal, Jabalpur - MPPCB",26-04-2025 18:00:00,23.168606,79.932247,PM2.5,14,110,52
India,Madhya Pradesh,Jabalpur,"Marhatal, Jabalpur - MPPCB",26-04-2025 18:00:00,23.168606,79.932247,PM10,81,153,112
India,Madhya Pradesh,Jabalpur,"Marhatal, Jabalpur - MPPCB",26-04-2025 18:00:00,23.168606,79.932247,OZONE,23,57,47
India,Madhya Pradesh,Jabalpur,"Suhagi, Jabalpur - JMC",26-04-2025 18:00:00,23.218135,79.95777,SO2,6,33,15
India,Madhya Pradesh,Katni,"Gole Bazar, Katni - MPPCB",26-04-2025 18:00:00,23.50016,80.23284,PM10,106,376,179
India,Maharashtra,Jalgaon,"Prabhat Colony, Jalgaon - MPCB",26-04-2025 18:00:00,21.001264,75.565602,CO,5,18,14
India,Maharashtra,Kalyan,"Khadakpada, Kalyan - MPCB",26-04-2025 18:00:00,19.25292,73.142019,PM10,88,147,105
India,Maharashtra,Kalyan,"Pimpleshwar Mandir, Kalyan - MPCB",26-04-2025 18:00:00,19.192056,72.9585188,PM10,43,60,51
India,Maharashtra,Kalyan,"Pimpleshwar Mandir, Kalyan - MPCB",26-04-2025 18:00:00,19.192056,72.9585188,NH3,1,2,2
India,Maharashtra,Kalyan,"Pimpleshwar Mandir, Kalyan - MPCB",26-04-2025 18:00:00,19.192056,72.9585188,OZONE,1,86,58
India,Madhya Pradesh,Gwalior,"Maharaj Bada, Gwalior - MPPCB",26-04-2025 18:00:00,26.200388,78.147714,PM2.5,37,288,102
India,Madhya Pradesh,Indore,"Airport Area, Indore - IMC",26-04-2025 18:00:00,22.7289,75.8076,PM10,39,87,62
India,Maharashtra,Nanded,"Sneh Nagar, Nanded - MPCB",26-04-2025 18:00:00,19.173852,77.296291,NO2,7,39,12
India,Maharashtra,Nanded,"Sneh Nagar, Nanded - MPCB",26-04-2025 18:00:00,19.173852,77.296291,NH3,3,6,4
India,Maharashtra,Nanded,"Sneh Nagar, Nanded - MPCB",26-04-2025 18:00:00,19.173852,77.296291,OZONE,44,81,73
India,Maharashtra,Nashik,"Gangapur Road, Nashik - MPCB",26-04-2025 18:00:00,20.0073285,73.7762427,PM2.5,33,158,68
India,Maharashtra,Nashik,"Gangapur Road, Nashik - MPCB",26-04-2025 18:00:00,20.0073285,73.7762427,NH3,4,6,5
India,Maharashtra,Nashik,"Gangapur Road, Nashik - MPCB",26-04-2025 18:00:00,20.0073285,73.7762427,OZONE,32,88,62
India,Maharashtra,Nashik,"Hirawadi, Nashik - MPCB",26-04-2025 18:00:00,20.021503,73.813844,PM10,81,148,106
India,Maharashtra,Nashik,"Hirawadi, Nashik - MPCB",26-04-2025 18:00:00,20.021503,73.813844,SO2,1,12,5
India,Maharashtra,Nashik,"MIDC Ambad, Nashik - MPCB",26-04-2025 18:00:00,19.95022,73.73148,NO2,6,20,10
India,Maharashtra,Nashik,"MIDC Ambad, Nashik - MPCB",26-04-2025 18:00:00,19.95022,73.73148,OZONE,14,74,43
India,Maharashtra,Navi Mumbai,"Kopripada-Vashi, Navi Mumbai - MPCB",26-04-2025 18:00:00,19.090337,73.014232,NO2,20,64,36
India,Maharashtra,Navi Mumbai,"Kopripada-Vashi, Navi Mumbai - MPCB",26-04-2025 18:00:00,19.090337,73.014232,CO,20,54,28
India,Maharashtra,Navi Mumbai,"Mahape, Navi Mumbai - MPCB",26-04-2025 18:00:00,19.1135051,73.008978,PM2.5,37,71,49
India,Maharashtra,Navi Mumbai,"Mahape, Navi Mumbai - MPCB",26-04-2025 18:00:00,19.1135051,73.008978,NO2,84,86,85
India,Maharashtra,Navi Mumbai,"Mahape, Navi Mumbai - MPCB",26-04-2025 18:00:00,19.1135051,73.008978,NH3,1,2,1
India,Maharashtra,Navi Mumbai,"Mahape, Navi Mumbai - MPCB",26-04-2025 18:00:00,19.1135051,73.008978,CO,38,44,39
India,Maharashtra,Navi Mumbai,"Sanpada, Navi Mumbai - MPCB",26-04-2025 18:00:00,19.0575752,73.0151367,NO2,NA,NA,NA
India,Maharashtra,Navi Mumbai,"Sanpada, Navi Mumbai - MPCB",26-04-2025 18:00:00,19.0575752,73.0151367,CO,2,12,2
India,Maharashtra,Navi Mumbai,"Sector-2E Kalamboli, Navi Mumbai - MPCB",26-04-2025 18:00:00,19.02579,73.10297,PM10,66,110,83
India,Maharashtra,Mumbai,"Byculla, Mumbai - BMC",26-04-2025 18:00:00,18.9767,72.838,PM10,33,128,60
India,Maharashtra,Mumbai,"Byculla, Mumbai - BMC",26-04-2025 18:00:00,18.9767,72.838,CO,8,13,9
India,Maharashtra,Mumbai,"Chembur, Mumbai - MPCB",26-04-2025 18:00:00,19.0364585,72.8954371,SO2,1,94,10
India,Maharashtra,Mumbai,"Chhatrapati Shivaji Intl. Airport (T2), Mumbai - MPCB",26-04-2025 18:00:00,19.10078,72.87462,SO2,20,21,20
India,Maharashtra,Mumbai,"Chhatrapati Shivaji Intl. Airport (T2), Mumbai - MPCB",26-04-2025 18:00:00,19.10078,72.87462,CO,18,23,19
India,Maharashtra,Mumbai,"Ghatkopar, Mumbai - BMC",26-04-2025 18:00:00,19.083694,72.920967,NH3,4,21,7
India,Maharashtra,Mumbai,"Kandivali East, Mumbai - MPCB",26-04-2025 18:00:00,19.2058,72.8682,NO2,1,1,1
India,Maharashtra,Mumbai,"Kandivali West, Mumbai - BMC",26-04-2025 18:00:00,19.215859,72.831718,PM2.5,14,37,26
India,Maharashtra,Mumbai,"Khindipada-Bhandup West, Mumbai - IITM",26-04-2025 18:00:00,19.1653323,72.922099,PM2.5,22,46,32
India,Maharashtra,Mumbai,"Khindipada-Bhandup West, Mumbai - IITM",26-04-2025 18:00:00,19.1653323,72.922099,SO2,10,19,13
India,Maharashtra,Mumbai,"Kurla, Mumbai - MPCB",26-04-2025 18:00:00,19.0863,72.8888,NH3,1,1,1
India,Maharashtra,Kolhapur,"Shivaji University, Kolhapur - MPCB",26-04-2025 18:00:00,16.6870449,74.2505872,PM10,13,76,49
India,Maharashtra,Kolhapur,"Shivaji University, Kolhapur - MPCB",26-04-2025 18:00:00,16.6870449,74.2505872,NH3,1,2,1
India,Maharashtra,Kolhapur,"Sinchan Bhavan, Kolhapur - MPCB",26-04-2025 18:00:00,16.7143745,74.2426398,PM10,24,62,43
India,Maharashtra,Mahad,"Kamble Tarf Birwadi, Mahad - MPCB",26-04-2025 18:00:00,18.1023399,73.4783687,CO,8,64,43
India,Maharashtra,Mumbai,"Mazgaon, Mumbai - IITM",26-04-2025 18:00:00,18.96702,72.84214,PM2.5,16,52,35
India,Maharashtra,Mumbai,"Mulund West, Mumbai - MPCB",26-04-2025 18:00:00,19.175,72.9419,PM2.5,16,32,24
India,Maharashtra,Mumbai,"Mulund West, Mumbai - MPCB",26-04-2025 18:00:00,19.175,72.9419,SO2,NA,NA,NA
India,Maharashtra,Mumbai,"Navy Nagar-Colaba, Mumbai - IITM",26-04-2025 18:00:00,18.897756,72.81332,NH3,2,2,2
India,Maharashtra,Mira-Bhayandar,"Bhayandar West, Mira-Bhayandar - MPCB",26-04-2025 18:00:00,19.296481,72.840923,CO,4,28,5
India,Maharashtra,Mumbai,"Bandra Kurla Complex, Mumbai - IITM",26-04-2025 18:00:00,19.053536,72.84643,SO2,2,3,2
India,Maharashtra,Mumbai,"Borivali East, Mumbai - IITM",26-04-2025 18:00:00,19.23241,72.86895,OZONE,3,50,34
India,Maharashtra,Nagpur,"Ambazari, Nagpur - MPCB",26-04-2025 18:00:00,21.121801,79.04952,CO,8,114,16
India,Maharashtra,Nagpur,"Opp GPO Civil Lines, Nagpur - MPCB",26-04-2025 18:00:00,21.152875,79.0517531,NO2,10,130,48
India,Maharashtra,Nagpur,"Ram Nagar, Nagpur - MPCB",26-04-2025 18:00:00,21.143383,79.048912,CO,15,62,17
India,Maharashtra,Mumbai,"Powai, Mumbai - MPCB",26-04-2025 18:00:00,19.1375,72.915056,NH3,2,2,2
India,Maharashtra,Mumbai,"Powai, Mumbai - MPCB",26-04-2025 18:00:00,19.1375,72.915056,SO2,24,28,26
India,Maharashtra,Mumbai,"Powai, Mumbai - MPCB",26-04-2025 18:00:00,19.1375,72.915056,OZONE,9,9,9
India,Maharashtra,Mumbai,"Vasai West, Mumbai - MPCB",26-04-2025 18:00:00,19.3832,72.8204,CO,52,66,53
India,Odisha,Angul,"Hakimapada, Angul - OSPCB",26-04-2025 18:00:00,20.832874,85.104082,CO,37,127,96
India,Odisha,Balasore,"Kalidaspur, Balasore - OSPCB",26-04-2025 18:00:00,21.51161,86.89088,NO2,3,17,8
India,Odisha,Balasore,"Kalidaspur, Balasore - OSPCB",26-04-2025 18:00:00,21.51161,86.89088,CO,10,46,32
India,Odisha,Barbil,"Forest Office, Barbil - OSPCB",26-04-2025 18:00:00,22.1166054,85.3945546,PM10,119,457,235
India,Odisha,Barbil,"Forest Office, Barbil - OSPCB",26-04-2025 18:00:00,22.1166054,85.3945546,NO2,20,65,37
India,Odisha,Barbil,"Forest Office, Barbil - OSPCB",26-04-2025 18:00:00,22.1166054,85.3945546,NH3,2,7,4
India,Odisha,Barbil,"Forest Office, Barbil - OSPCB",26-04-2025 18:00:00,22.1166054,85.3945546,SO2,2,60,28
India,Odisha,Baripada,"Meher Colony, Baripada - OSPCB",26-04-2025 18:00:00,21.941841,86.728318,OZONE,14,64,50
India,Odisha,Bhubaneswar,"Lingraj Mandir, Bhubaneswar - OSPCB",26-04-2025 18:00:00,20.24079,85.836784,OZONE,17,41,33
India,Odisha,Keonjhar,"Jagamohanpur, Keonjhar - OSPCB",26-04-2025 18:00:00,21.6439,85.599355,OZONE,26,48,37
India,Odisha,Nayagarh,"Dabuna, Nayagarh - OSPCB",26-04-2025 18:00:00,21.847279,85.416905,NO2,1,7,5
India,Odisha,Nayagarh,"Dabuna, Nayagarh - OSPCB",26-04-2025 18:00:00,21.847279,85.416905,SO2,3,6,4
India,Odisha,Rairangpur,"Divisional Forest Office, Rairangpur - OSPCB",26-04-2025 18:00:00,22.265816,86.174829,NO2,NA,NA,NA
India,Odisha,Rairangpur,"Divisional Forest Office, Rairangpur - OSPCB",26-04-2025 18:00:00,22.265816,86.174829,NH3,NA,NA,NA
India,Odisha,Rourkela,"Fertilizer Township, Rourkela - OSPCB",26-04-2025 18:00:00,22.18972222,84.86277778,PM2.5,91,113,99
India,Odisha,Rourkela,"Fertilizer Township, Rourkela - OSPCB",26-04-2025 18:00:00,22.18972222,84.86277778,NO2,14,15,14
India,Odisha,Rourkela,"Fertilizer Township, Rourkela - OSPCB",26-04-2025 18:00:00,22.18972222,84.86277778,SO2,20,69,26
India,Maharashtra,Pune,"Bhosari, Pune - IITM",26-04-2025 18:00:00,18.640051,73.848956,PM10,49,101,73
India,Maharashtra,Pune,"Bhumkar Nagar, Pune - IITM",26-04-2025 18:00:00,18.60577,73.749976,PM10,48,113,78
India,Maharashtra,Pune,"Hadapsar, Pune - IITM",26-04-2025 18:00:00,18.501793,73.927532,OZONE,2,101,70
India,Maharashtra,Pune,"Karve Road, Pune - MPCB",26-04-2025 18:00:00,18.5011743,73.8165527,PM2.5,156,156,156
India,Maharashtra,Pune,"Katraj Dairy, Pune - MPCB",26-04-2025 18:00:00,18.45445,73.854155,NO2,9,32,22
India,Maharashtra,Pune,"Katraj Dairy, Pune - MPCB",26-04-2025 18:00:00,18.45445,73.854155,NH3,2,5,3
India,Maharashtra,Pune,"Katraj Dairy, Pune - MPCB",26-04-2025 18:00:00,18.45445,73.854155,SO2,2,4,3
India,Maharashtra,Pune,"Katraj Dairy, Pune - MPCB",26-04-2025 18:00:00,18.45445,73.854155,CO,14,62,33
India,Maharashtra,Thane,"Kasarvadavali, Thane - MPCB",26-04-2025 18:00:00,19.26777,72.97182,PM10,58,89,73
India,Maharashtra,Thane,"Kasarvadavali, Thane - MPCB",26-04-2025 18:00:00,19.26777,72.97182,NH3,4,8,5
India,Maharashtra,Thane,"Kasarvadavali, Thane - MPCB",26-04-2025 18:00:00,19.26777,72.97182,SO2,1,2,1
India,Maharashtra,Thane,"Kasarvadavali, Thane - MPCB",26-04-2025 18:00:00,19.26777,72.97182,OZONE,2,45,35
India,Maharashtra,Thane,"Upvan Fort, Thane - MPCB",26-04-2025 18:00:00,19.222279,72.957979,PM2.5,12,48,31
India,Maharashtra,Ulhasnagar,"Sidhi Vinayak Nagar, Ulhasnagar - MPCB",26-04-2025 18:00:00,19.235581,73.159121,PM2.5,86,150,104
India,Maharashtra,Ulhasnagar,"Sidhi Vinayak Nagar, Ulhasnagar - MPCB",26-04-2025 18:00:00,19.235581,73.159121,PM10,110,144,122
India,Maharashtra,Ulhasnagar,"Sidhi Vinayak Nagar, Ulhasnagar - MPCB",26-04-2025 18:00:00,19.235581,73.159121,NO2,29,86,47
India,Maharashtra,Pune,"Revenue Colony-Shivajinagar, Pune - IITM",26-04-2025 18:00:00,18.530085,73.849598,NO2,35,60,48
India,Maharashtra,Pune,"Savitribai Phule Pune University, Pune - MPCB",26-04-2025 18:00:00,18.547056,73.826908,PM10,45,81,66
India,Maharashtra,Solapur,"Dnyaneshwar Nagar, Solapur - MPCB",26-04-2025 18:00:00,17.6336264,75.9132495,PM2.5,36,130,65
India,Maharashtra,Solapur,"Dnyaneshwar Nagar, Solapur - MPCB",26-04-2025 18:00:00,17.6336264,75.9132495,NO2,5,30,15
India,Maharashtra,Solapur,"Ratandeep Housing Society, Solapur - MPCB",26-04-2025 18:00:00,17.65439,75.90649,PM10,22,313,66
India,Odisha,Bhubaneswar,"Patia, Bhubaneswar - OSPCB",26-04-2025 18:00:00,20.34652,85.8163,NH3,3,5,3
India,Odisha,Bhubaneswar,"Patia, Bhubaneswar - OSPCB",26-04-2025 18:00:00,20.34652,85.8163,OZONE,3,60,40
India,Odisha,Brajrajnagar,"GM Office, Brajrajnagar - OSPCB",26-04-2025 18:00:00,21.8004996,83.8396977,NH3,7,7,7
India,Odisha,Cuttack,"CDA Area, Cuttack - OSPCB",26-04-2025 18:00:00,20.48891,85.84768,CO,16,36,30
India,Odisha,Keonjhar,"Jagamohanpur, Keonjhar - OSPCB",26-04-2025 18:00:00,21.6439,85.599355,PM2.5,NA,NA,NA
India,Maharashtra,Parbhani,"Masoom Colony, Parbhani - MPCB",26-04-2025 18:00:00,19.265594,76.761463,OZONE,10,111,50
India,Maharashtra,Pimpri-Chinchwad,"Park Street Wakad, Pimpri Chinchwad - MPCB",26-04-2025 18:00:00,18.59051,73.77946,CO,14,36,21
India,Maharashtra,Pimpri-Chinchwad,"Thergaon, Pimpri Chinchwad - MPCB",26-04-2025 18:00:00,18.616318,73.765797,PM10,49,96,70
India,Maharashtra,Virar,"Bolinj, Virar - MPCB",26-04-2025 18:00:00,19.445821,72.7988231,OZONE,6,59,51
India,Manipur,Imphal,"DM College of Science, Imphal - Manipur PCB",26-04-2025 18:00:00,24.8207389,93.9423085,NO2,7,8,8
India,Manipur,Imphal,"DM College of Science, Imphal - Manipur PCB",26-04-2025 18:00:00,24.8207389,93.9423085,CO,7,8,8
India,Odisha,Angul,"Hakimapada, Angul - OSPCB",26-04-2025 18:00:00,20.832874,85.104082,NO2,6,32,15
India,Rajasthan,Chittorgarh,"Shastri Nagar, Chittorgarh - RSPCB",26-04-2025 18:00:00,24.892047,74.623527,CO,13,39,20
India,Rajasthan,Churu,"Subash Chowk, Churu - RSPCB",26-04-2025 18:00:00,28.296139,74.961696,PM10,73,486,200
India,Rajasthan,Dausa,"Khatikan Mohalla, Dausa - RSPCB",26-04-2025 18:00:00,26.895552,76.334753,NH3,NA,NA,NA
India,Rajasthan,Dholpur,"Raja Ganj, Dholpur - RSPCB",26-04-2025 18:00:00,26.699557,77.898881,PM2.5,22,61,42
India,Rajasthan,Dungarpur,"Bhoiwada, Dungarpur - RSPCB",26-04-2025 18:00:00,23.837789,73.714926,PM2.5,21,243,54
India,Rajasthan,Dungarpur,"Bhoiwada, Dungarpur - RSPCB",26-04-2025 18:00:00,23.837789,73.714926,NH3,4,5,4
India,Rajasthan,Hanumangarh,"Housing Board, Hanumangarh - RSPCB",26-04-2025 18:00:00,29.61075,74.283608,PM10,121,357,212
India,Rajasthan,Hanumangarh,"Housing Board, Hanumangarh - RSPCB",26-04-2025 18:00:00,29.61075,74.283608,CO,27,101,56
India,Rajasthan,Jaipur,"Adarsh Nagar, Jaipur - RSPCB",26-04-2025 18:00:00,26.902909,75.836858,PM10,79,213,122
India,Rajasthan,Jaipur,"Mansarovar Sector-12, Jaipur - RSPCB",26-04-2025 18:00:00,26.843698,75.766894,NH3,1,5,3
India,Rajasthan,Jaipur,"Police Commissionerate, Jaipur - RSPCB",26-04-2025 18:00:00,26.9164092,75.7994901,PM2.5,62,309,137
India,Rajasthan,Jaipur,"RIICO Sitapura, Jaipur - RSPCB",26-04-2025 18:00:00,26.786682,75.827928,NO2,15,176,84
India,Rajasthan,Jaipur,"RIICO Sitapura, Jaipur - RSPCB",26-04-2025 18:00:00,26.786682,75.827928,CO,40,151,46
India,Rajasthan,Jaipur,"RIICO Sitapura, Jaipur - RSPCB",26-04-2025 18:00:00,26.786682,75.827928,OZONE,1,117,109
India,Rajasthan,Baran,"Bamboliya, Baran - RSPCB",26-04-2025 18:00:00,25.106006,76.469948,SO2,6,62,17
India,Rajasthan,Baran,"Bamboliya, Baran - RSPCB",26-04-2025 18:00:00,25.106006,76.469948,OZONE,16,148,132
India,Rajasthan,Barmer,"Railway Colony, Barmer - RSPCB",26-04-2025 18:00:00,25.747299,71.393989,NO2,1,55,11
India,Rajasthan,Barmer,"Railway Colony, Barmer - RSPCB",26-04-2025 18:00:00,25.747299,71.393989,SO2,5,20,8
India,Rajasthan,Bharatpur,"Krishna Nagar, Bharatpur - RSPCB",26-04-2025 18:00:00,27.215415,77.50873,PM2.5,18,349,80
India,Rajasthan,Bharatpur,"Krishna Nagar, Bharatpur - RSPCB",26-04-2025 18:00:00,27.215415,77.50873,PM10,78,500,153
India,Rajasthan,Bharatpur,"Krishna Nagar, Bharatpur - RSPCB",26-04-2025 18:00:00,27.215415,77.50873,NO2,9,112,54
India,Rajasthan,Bharatpur,"Krishna Nagar, Bharatpur - RSPCB",26-04-2025 18:00:00,27.215415,77.50873,NH3,6,18,13
India,Rajasthan,Bharatpur,"Krishna Nagar, Bharatpur - RSPCB",26-04-2025 18:00:00,27.215415,77.50873,OZONE,16,120,92
India,Rajasthan,Bhiwadi,"RIICO Ind. Area III, Bhiwadi - RSPCB",26-04-2025 18:00:00,28.194909,76.862296,PM2.5,147,398,312
India,Rajasthan,Bhiwadi,"RIICO Ind. Area III, Bhiwadi - RSPCB",26-04-2025 18:00:00,28.194909,76.862296,SO2,8,42,15
India,Rajasthan,Bhiwadi,"RIICO Ind. Area III, Bhiwadi - RSPCB",26-04-2025 18:00:00,28.194909,76.862296,OZONE,10,91,59
India,Rajasthan,Bikaner,"MM Ground, Bikaner - RSPCB",26-04-2025 18:00:00,28.018792,73.292658,PM2.5,NA,NA,NA
India,Rajasthan,Bikaner,"MM Ground, Bikaner - RSPCB",26-04-2025 18:00:00,28.018792,73.292658,PM10,NA,NA,NA
India,Rajasthan,Bikaner,"MM Ground, Bikaner - RSPCB",26-04-2025 18:00:00,28.018792,73.292658,NO2,6,85,24
India,Rajasthan,Bikaner,"MM Ground, Bikaner - RSPCB",26-04-2025 18:00:00,28.018792,73.292658,NH3,4,8,6
India,Rajasthan,Bundi,"New Colony, Bundi - RSPCB",26-04-2025 18:00:00,25.435774,75.644272,PM10,70,500,140
India,Rajasthan,Bundi,"New Colony, Bundi - RSPCB",26-04-2025 18:00:00,25.435774,75.644272,NH3,5,15,9
India,Punjab,Amritsar,"Golden Temple, Amritsar - PPCB",26-04-2025 18:00:00,31.62,74.876512,CO,74,154,116
India,Punjab,Jalandhar,"Civil Line, Jalandhar - PPCB",26-04-2025 18:00:00,31.321907,75.578914,PM10,72,158,123
India,Punjab,Jalandhar,"Civil Line, Jalandhar - PPCB",26-04-2025 18:00:00,31.321907,75.578914,NH3,2,2,2
India,Punjab,Jalandhar,"Civil Line, Jalandhar - PPCB",26-04-2025 18:00:00,31.321907,75.578914,OZONE,15,75,50
India,Punjab,Khanna,"Kalal Majra, Khanna - PPCB",26-04-2025 18:00:00,30.736056,76.209694,CO,89,102,99
India,Punjab,Ludhiana,"Punjab Agricultural University, Ludhiana - PPCB",26-04-2025 18:00:00,30.9028,75.8086,PM10,73,169,100
India,Rajasthan,Jaipur,"Shastri Nagar, Jaipur - RSPCB",26-04-2025 18:00:00,26.9502929,75.730943,NO2,12,120,36
India,Rajasthan,Jaisalmer,"Sadar Bazar, Jaisalmer - RSPCB",26-04-2025 18:00:00,26.912329,70.909168,PM2.5,21,108,44
India,Rajasthan,Jaisalmer,"Sadar Bazar, Jaisalmer - RSPCB",26-04-2025 18:00:00,26.912329,70.909168,PM10,51,253,107
India,Rajasthan,Jaisalmer,"Sadar Bazar, Jaisalmer - RSPCB",26-04-2025 18:00:00,26.912329,70.909168,SO2,2,4,3
India,Rajasthan,Jaisalmer,"Sadar Bazar, Jaisalmer - RSPCB",26-04-2025 18:00:00,26.912329,70.909168,CO,11,50,17
India,Rajasthan,Jhalawar,"Rajlaxmi Nagar, Jhalawar - RSPCB",26-04-2025 18:00:00,24.588397,76.172782,PM2.5,19,92,55
India,Rajasthan,Jhalawar,"Rajlaxmi Nagar, Jhalawar - RSPCB",26-04-2025 18:00:00,24.588397,76.172782,CO,27,85,30
India,Punjab,Mandi Gobindgarh,"RIMT University, Mandi Gobindgarh - PPCB",26-04-2025 18:00:00,30.649961,76.331442,SO2,NA,NA,NA
India,Punjab,Mandi Gobindgarh,"RIMT University, Mandi Gobindgarh - PPCB",26-04-2025 18:00:00,30.649961,76.331442,CO,39,97,88
India,Rajasthan,Ajmer,"Civil Lines,  Ajmer - RSPCB",26-04-2025 18:00:00,26.470859,74.646594,SO2,5,88,13
India,Rajasthan,Alwar,"Moti Doongri, Alwar - RSPCB",26-04-2025 18:00:00,27.554793,76.611536,OZONE,8,70,66
India,Rajasthan,Banswara,"Rati Talai, Banswara - RSPCB",26-04-2025 18:00:00,23.55519,74.44001,PM2.5,12,82,52
India,Odisha,Tensa,"Barsua Iron Ore Mines, Tensa - OSPCB",26-04-2025 18:00:00,21.869985,85.167016,NH3,4,6,5
India,Puducherry,Puducherry,"Jawahar Nagar, Puducherry - PPCC",26-04-2025 18:00:00,11.9309,79.8027,OZONE,9,29,17
India,Odisha,Rourkela,"Sector-2, Rourkela - OSPCB",26-04-2025 18:00:00,22.245,84.88111111,CO,NA,NA,NA
India,TamilNadu,Chennai,"Alandur Bus Depot, Chennai - CPCB",26-04-2025 18:00:00,12.9099161,80.1076538,SO2,15,16,15
India,TamilNadu,Chennai,"Alandur Bus Depot, Chennai - CPCB",26-04-2025 18:00:00,12.9099161,80.1076538,CO,20,36,24
India,TamilNadu,Chennai,"Alandur Bus Depot, Chennai - CPCB",26-04-2025 18:00:00,12.9099161,80.1076538,OZONE,1,7,3
India,TamilNadu,Chennai,"Manali Village, Chennai - TNPCB",26-04-2025 18:00:00,13.1662,80.2584,NH3,5,56,40
India,TamilNadu,Chennai,"Manali Village, Chennai - TNPCB",26-04-2025 18:00:00,13.1662,80.2584,SO2,10,13,12
India,TamilNadu,Chennai,"Manali Village, Chennai - TNPCB",26-04-2025 18:00:00,13.1662,80.2584,OZONE,31,43,32
India,TamilNadu,Chennai,"Manali, Chennai - CPCB",26-04-2025 18:00:00,13.164544,80.26285,PM2.5,NA,NA,NA
India,TamilNadu,Chennai,"Manali, Chennai - CPCB",26-04-2025 18:00:00,13.164544,80.26285,PM10,NA,NA,NA
India,TamilNadu,Chennai,"Perungudi, Chennai - TNPCB",26-04-2025 18:00:00,12.9533,80.2357,NO2,2,7,4
India,TamilNadu,Chennai,"Perungudi, Chennai - TNPCB",26-04-2025 18:00:00,12.9533,80.2357,SO2,1,10,5
India,TamilNadu,Chennai,"Perungudi, Chennai - TNPCB",26-04-2025 18:00:00,12.9533,80.2357,OZONE,9,37,17
India,TamilNadu,Chennai,"Royapuram, Chennai - TNPCB",26-04-2025 18:00:00,13.1036,80.2909,NH3,3,8,4
India,Rajasthan,Jodhpur,"Samrat Ashok Udhyan, Jodhpur - RSPCB",26-04-2025 18:00:00,26.253384,72.976571,NO2,2,87,13
India,Rajasthan,Jodhpur,"Samrat Ashok Udhyan, Jodhpur - RSPCB",26-04-2025 18:00:00,26.253384,72.976571,SO2,2,13,7
India,Rajasthan,Jodhpur,"Samrat Ashok Udhyan, Jodhpur - RSPCB",26-04-2025 18:00:00,26.253384,72.976571,OZONE,28,113,92
India,Rajasthan,Karauli,"Satyawati Vihar, Karauli - RSPCB",26-04-2025 18:00:00,26.506177,77.025989,PM2.5,16,62,39
India,Rajasthan,Karauli,"Satyawati Vihar, Karauli - RSPCB",26-04-2025 18:00:00,26.506177,77.025989,PM10,57,500,129
India,Rajasthan,Karauli,"Satyawati Vihar, Karauli - RSPCB",26-04-2025 18:00:00,26.506177,77.025989,SO2,14,27,21
India,Rajasthan,Kota,"Nayapura, Kota - RSPCB",26-04-2025 18:00:00,25.196024,75.855668,PM10,65,500,117
India,Rajasthan,Kota,"Nayapura, Kota - RSPCB",26-04-2025 18:00:00,25.196024,75.855668,NO2,10,90,33
India,Rajasthan,Kota,"Nayapura, Kota - RSPCB",26-04-2025 18:00:00,25.196024,75.855668,SO2,6,16,10
India,Rajasthan,Kota,"Shrinath Puram, Kota - RSPCB",26-04-2025 18:00:00,25.14389,75.821256,PM2.5,21,301,120
India,Rajasthan,Kota,"Shrinath Puram, Kota - RSPCB",26-04-2025 18:00:00,25.14389,75.821256,PM10,17,382,102
India,Rajasthan,Jhunjhunu,"Indra Nagar, Jhunjhunu - RSPCB",26-04-2025 18:00:00,28.108988,75.386577,PM2.5,26,180,77
India,Rajasthan,Jodhpur,"Digari Kalan, Jodhpur - RSPCB",26-04-2025 18:00:00,26.29581,73.082283,SO2,5,14,8
India,Rajasthan,Jodhpur,"Jhalamand, Jodhpur - RSPCB",26-04-2025 18:00:00,26.215415,73.070156,PM2.5,25,380,94
India,Rajasthan,Jodhpur,"Jhalamand, Jodhpur - RSPCB",26-04-2025 18:00:00,26.215415,73.070156,PM10,49,286,97
India,Rajasthan,Jodhpur,"Jhalamand, Jodhpur - RSPCB",26-04-2025 18:00:00,26.215415,73.070156,OZONE,32,88,75
India,Rajasthan,Jodhpur,"Mandor, Jodhpur - RSPCB",26-04-2025 18:00:00,26.358805,73.047444,NO2,10,110,22
India,Rajasthan,Jodhpur,"Mandor, Jodhpur - RSPCB",26-04-2025 18:00:00,26.358805,73.047444,SO2,6,16,10
India,Rajasthan,Jodhpur,"Mandor, Jodhpur - RSPCB",26-04-2025 18:00:00,26.358805,73.047444,CO,4,52,11
India,Rajasthan,Jodhpur,"Samrat Ashok Udhyan, Jodhpur - RSPCB",26-04-2025 18:00:00,26.253384,72.976571,PM2.5,17,69,40
India,TamilNadu,Chennai,"Velachery Res. Area, Chennai - CPCB",26-04-2025 18:00:00,13.0052189,80.2398125,NO2,13,15,14
India,TamilNadu,Chennai,"Velachery Res. Area, Chennai - CPCB",26-04-2025 18:00:00,13.0052189,80.2398125,NH3,4,5,5
India,TamilNadu,Coimbatore,"PSG College of Arts and Science, Coimbatore - TNPCB",26-04-2025 18:00:00,11.0328,77.0349,PM10,36,70,54
India,TamilNadu,Cuddalore,"Kudikadu, Cuddalore - TNPCB",26-04-2025 18:00:00,11.6829898,79.7532099,SO2,10,11,10
India,TamilNadu,Cuddalore,"Kudikadu, Cuddalore - TNPCB",26-04-2025 18:00:00,11.6829898,79.7532099,OZONE,4,4,4
India,TamilNadu,Cuddalore,"Semmandalam, Cuddalore - TNPCB",26-04-2025 18:00:00,11.7637683,79.7499835,NO2,5,9,7
India,Rajasthan,Kota,"Shrinath Puram, Kota - RSPCB",26-04-2025 18:00:00,25.14389,75.821256,OZONE,19,80,68
India,Rajasthan,Nagaur,"Karni Colony, Nagaur - RSPCB",26-04-2025 18:00:00,27.213494,73.734444,PM2.5,22,79,47
India,Rajasthan,Nagaur,"Karni Colony, Nagaur - RSPCB",26-04-2025 18:00:00,27.213494,73.734444,PM10,111,500,192
India,Rajasthan,Nagaur,"Karni Colony, Nagaur - RSPCB",26-04-2025 18:00:00,27.213494,73.734444,SO2,3,12,7
India,Rajasthan,Pratapgarh,"Pragati Nagar, Pratapgarh - RSPCB",26-04-2025 18:00:00,24.041198,74.780702,OZONE,71,143,112
India,Rajasthan,Udaipur,"Ashok Nagar, Udaipur - RSPCB",26-04-2025 18:00:00,24.5886166,73.6321397,NH3,8,8,8
India,TamilNadu,Chengalpattu,"Crescent University, Chengalpattu - TNPCB",26-04-2025 18:00:00,12.8777316,80.0834807,NO2,14,14,14
India,TamilNadu,Chengalpattu,"Crescent University, Chengalpattu - TNPCB",26-04-2025 18:00:00,12.8777316,80.0834807,SO2,12,17,16
India,TamilNadu,Chennai,"Alandur Bus Depot, Chennai - CPCB",26-04-2025 18:00:00,12.9099161,80.1076538,PM10,16,18,17
India,Rajasthan,Rajsamand,"Dhoinda, Rajsamand - RSPCB",26-04-2025 18:00:00,25.03636,73.883502,PM10,32,113,57
India,Rajasthan,Rajsamand,"Dhoinda, Rajsamand - RSPCB",26-04-2025 18:00:00,25.03636,73.883502,NO2,5,39,18
India,Rajasthan,Rajsamand,"Dhoinda, Rajsamand - RSPCB",26-04-2025 18:00:00,25.03636,73.883502,SO2,4,10,7
India,Rajasthan,Sawai Madhopur,"Sahu Nagar, Sawai Madhopur - RSPCB",26-04-2025 18:00:00,26.031443,76.359327,OZONE,7,94,75
India,TamilNadu,Madurai,"Uchapatti, Madurai - TNPCB",26-04-2025 18:00:00,9.865935,78.022669,PM2.5,21,66,41
India,TamilNadu,Madurai,"Uchapatti, Madurai - TNPCB",26-04-2025 18:00:00,9.865935,78.022669,NH3,3,3,3
India,TamilNadu,Madurai,"Uchapatti, Madurai - TNPCB",26-04-2025 18:00:00,9.865935,78.022669,CO,12,16,15
India,TamilNadu,Nagapattinam,"Velippalayam, Nagapattinam - TNPCB",26-04-2025 18:00:00,10.798548,79.838212,PM2.5,3,40,22
India,TamilNadu,Kanchipuram,"Kilambi, Kanchipuram - TNPCB",26-04-2025 18:00:00,12.864618,79.659968,NO2,NA,NA,NA
India,TamilNadu,Kanchipuram,"Kilambi, Kanchipuram - TNPCB",26-04-2025 18:00:00,12.864618,79.659968,NH3,4,4,4
India,TamilNadu,Ramanathapuram,"Chalai Bazaar, Ramanathapuram - TNPCB",26-04-2025 18:00:00,9.36399,78.831977,SO2,14,20,15
India,TamilNadu,Ranipet,"VOC Nagar_SIPCOT, Ranipet - TNPCB",26-04-2025 18:00:00,12.952707,79.30394,CO,16,21,18
India,TamilNadu,Salem,"Sona College of Technology, Salem - TNPCB",26-04-2025 18:00:00,11.679111,78.125052,PM10,34,76,52
India,TamilNadu,Thanjavur,"Parisutham Nagar, Thanjavur - TNPCB",26-04-2025 18:00:00,10.7654824,79.1389968,PM10,21,57,34
India,TamilNadu,Thanjavur,"Parisutham Nagar, Thanjavur - TNPCB",26-04-2025 18:00:00,10.7654824,79.1389968,SO2,14,17,16
India,TamilNadu,Thanjavur,"Parisutham Nagar, Thanjavur - TNPCB",26-04-2025 18:00:00,10.7654824,79.1389968,CO,8,9,8
India,TamilNadu,Thoothukudi,"Meelavittan, Thoothukudi - TNPCB",26-04-2025 18:00:00,8.816428,78.099039,PM10,25,90,54
India,TamilNadu,Thoothukudi,"Meelavittan, Thoothukudi - TNPCB",26-04-2025 18:00:00,8.816428,78.099039,NO2,1,6,5
India,TamilNadu,Thoothukudi,"Meelavittan, Thoothukudi - TNPCB",26-04-2025 18:00:00,8.816428,78.099039,SO2,1,46,10
India,TamilNadu,Tiruchirappalli,"St Joseph College, Tiruchirappalli - TNPCB",26-04-2025 18:00:00,10.830158,78.691849,PM2.5,31,45,39
India,TamilNadu,Tiruchirappalli,"St Joseph College, Tiruchirappalli - TNPCB",26-04-2025 18:00:00,10.830158,78.691849,NO2,9,10,10
India,Uttar_Pradesh,Agra,"Sector-3B Avas Vikas Colony, Agra - UPPCB",26-04-2025 18:00:00,27.19412,77.96237,PM10,12,412,189
India,Uttar_Pradesh,Agra,"Sector-3B Avas Vikas Colony, Agra - UPPCB",26-04-2025 18:00:00,27.19412,77.96237,SO2,19,27,22
India,Uttar_Pradesh,Agra,"Sector-3B Avas Vikas Colony, Agra - UPPCB",26-04-2025 18:00:00,27.19412,77.96237,CO,22,75,45
India,Uttar_Pradesh,Agra,"Sector-3B Avas Vikas Colony, Agra - UPPCB",26-04-2025 18:00:00,27.19412,77.96237,OZONE,1,9,6
India,Uttar_Pradesh,Agra,"Shahjahan Garden, Agra - UPPCB",26-04-2025 18:00:00,27.169338,78.03582,PM2.5,4,170,87
India,Uttar_Pradesh,Agra,"Shahjahan Garden, Agra - UPPCB",26-04-2025 18:00:00,27.169338,78.03582,OZONE,1,51,46
India,Uttar_Pradesh,Agra,"Shastripuram, Agra - UPPCB",26-04-2025 18:00:00,27.19862,77.92066,NO2,34,59,36
India,Uttar_Pradesh,Agra,"Shastripuram, Agra - UPPCB",26-04-2025 18:00:00,27.19862,77.92066,SO2,13,41,23
India,Uttar_Pradesh,Agra,"Shastripuram, Agra - UPPCB",26-04-2025 18:00:00,27.19862,77.92066,CO,12,32,17
India,Uttar_Pradesh,Bareilly,"Civil Lines, Bareilly - UPPCB",26-04-2025 18:00:00,28.359581,79.414455,PM2.5,1,10,5
India,Telangana,Hyderabad,"Somajiguda, Hyderabad - TSPCB",26-04-2025 18:00:00,17.417094,78.457437,CO,28,70,37
India,Telangana,Hyderabad,"Somajiguda, Hyderabad - TSPCB",26-04-2025 18:00:00,17.417094,78.457437,OZONE,11,36,28
India,Telangana,Hyderabad,"Zoo Park, Hyderabad - TSPCB",26-04-2025 18:00:00,17.349694,78.451437,NH3,3,5,4
India,Tripura,Agartala,"Bardowali, Agartala - Tripura SPCB",26-04-2025 18:00:00,23.8175497,91.2726974,NO2,4,10,6
India,Uttar_Pradesh,Agra,"Manoharpur, Agra - UPPCB",26-04-2025 18:00:00,27.23711,78.01936,CO,4,24,9
India,Uttar_Pradesh,Agra,"Rohta, Agra - UPPCB",26-04-2025 18:00:00,27.106972,78.000111,PM10,15,179,112
India,Uttar_Pradesh,Agra,"Sanjay Palace, Agra - UPPCB",26-04-2025 18:00:00,27.19865833,78.00598056,PM10,93,201,150
India,Telangana,Hyderabad,"Kompally Municipal Office, Hyderabad - TSPCB",26-04-2025 18:00:00,17.544899,78.486949,SO2,10,21,15
India,Telangana,Hyderabad,"Nacharam_TSIIC IALA, Hyderabad - TSPCB",26-04-2025 18:00:00,17.429398,78.569354,NO2,11,16,12
India,Telangana,Hyderabad,"Nacharam_TSIIC IALA, Hyderabad - TSPCB",26-04-2025 18:00:00,17.429398,78.569354,CO,29,44,41
India,Telangana,Hyderabad,"New Malakpet, Hyderabad - TSPCB",26-04-2025 18:00:00,17.37206,78.50864,OZONE,10,46,36
India,Telangana,Hyderabad,"Sanathnagar, Hyderabad - TSPCB",26-04-2025 18:00:00,17.4559458,78.4332152,NO2,23,30,27
India,Telangana,Hyderabad,"Somajiguda, Hyderabad - TSPCB",26-04-2025 18:00:00,17.417094,78.457437,PM2.5,71,169,101
India,TamilNadu,Tirunelveli,"Municipal Corporation Office, Tirunelveli - TNPCB",26-04-2025 18:00:00,8.728442,77.6962,PM10,NA,NA,NA
India,TamilNadu,Tirupur,"Kumaran College, Tirupur - TNPCB",26-04-2025 18:00:00,11.0973603,77.3228673,CO,50,65,61
India,TamilNadu,Tirupur,"Kumaran College, Tirupur - TNPCB",26-04-2025 18:00:00,11.0973603,77.3228673,OZONE,1,1,1
India,TamilNadu,Vellore,"Vasanthapuram, Vellore - TNPCB",26-04-2025 18:00:00,12.909494,79.131861,PM2.5,NA,NA,NA
India,Telangana,Hyderabad,"Bollaram Industrial Area, Hyderabad - TSPCB",26-04-2025 18:00:00,17.540891,78.358528,SO2,38,127,66
India,Telangana,Hyderabad,"ECIL Kapra, Hyderabad - TSPCB",26-04-2025 18:00:00,17.470431,78.566959,NO2,5,34,22
India,Telangana,Hyderabad,"ECIL Kapra, Hyderabad - TSPCB",26-04-2025 18:00:00,17.470431,78.566959,CO,30,53,34
India,Telangana,Hyderabad,"ECIL Kapra, Hyderabad - TSPCB",26-04-2025 18:00:00,17.470431,78.566959,OZONE,29,57,46
India,Telangana,Hyderabad,"IDA Pashamylaram, Hyderabad - TSPCB",26-04-2025 18:00:00,17.5316895,78.218939,NH3,1,2,1
India,Telangana,Hyderabad,"IDA Pashamylaram, Hyderabad - TSPCB",26-04-2025 18:00:00,17.5316895,78.218939,SO2,1,17,7
India,Telangana,Hyderabad,"IDA Pashamylaram, Hyderabad - TSPCB",26-04-2025 18:00:00,17.5316895,78.218939,CO,24,48,30
India,Telangana,Hyderabad,"IITH Kandi, Hyderabad - TSPCB",26-04-2025 18:00:00,17.585705,78.126199,CO,17,66,29
India,Uttar_Pradesh,Ghaziabad,"Loni, Ghaziabad - UPPCB",26-04-2025 18:00:00,28.757294,77.278792,NH3,4,37,15
India,Uttar_Pradesh,Ghaziabad,"Loni, Ghaziabad - UPPCB",26-04-2025 18:00:00,28.757294,77.278792,SO2,7,138,46
India,Uttar_Pradesh,Ghaziabad,"Vasundhara, Ghaziabad - UPPCB",26-04-2025 18:00:00,28.6603346,77.3572563,NH3,5,17,9
India,Uttar_Pradesh,Ghaziabad,"Vasundhara, Ghaziabad - UPPCB",26-04-2025 18:00:00,28.6603346,77.3572563,SO2,NA,NA,NA
India,Uttar_Pradesh,Gorakhpur,"Madan Mohan Malaviya University of Technology, Gorakhpur - UPPCB",26-04-2025 18:00:00,26.730136,83.433859,NH3,1,1,1
India,Uttar_Pradesh,Gorakhpur,"Madan Mohan Malaviya University of Technology, Gorakhpur - UPPCB",26-04-2025 18:00:00,26.730136,83.433859,SO2,43,45,44
India,Uttar_Pradesh,Bareilly,"Rajendra Nagar, Bareilly - UPPCB",26-04-2025 18:00:00,28.38910936,79.42963708,NO2,2,3,2
India,Uttar_Pradesh,Bulandshahr,"Yamunapuram, Bulandshahr - UPPCB",26-04-2025 18:00:00,28.406963,77.849831,NO2,15,121,60
India,Uttar_Pradesh,Firozabad,"Nagla Bhau, Firozabad - UPPCB",26-04-2025 18:00:00,27.168897,78.37696,NO2,16,17,17
India,TamilNadu,Nagapattinam,"Velippalayam, Nagapattinam - TNPCB",26-04-2025 18:00:00,10.798548,79.838212,OZONE,1,56,27
India,TamilNadu,Perundurai,"SIPCOT Industrial Park, Perundurai - TNPCB",26-04-2025 18:00:00,11.258242,77.552761,OZONE,31,37,35
India,West_Bengal,Asansol,"Asansol Court Area, Asansol - WBPCB",26-04-2025 18:00:00,23.685297,86.945968,CO,26,78,37
India,West_Bengal,Asansol,"Evelyn Lodge, Asansol - WBPCB",26-04-2025 18:00:00,23.697936,86.944395,SO2,4,14,7
India,West_Bengal,Asansol,"Evelyn Lodge, Asansol - WBPCB",26-04-2025 18:00:00,23.697936,86.944395,CO,20,62,27
India,West_Bengal,Asansol,"Mahabir Colliery, Asansol - WBPCB",26-04-2025 18:00:00,23.618183,87.105718,PM2.5,39,168,66
India,West_Bengal,Asansol,"Mahabir Colliery, Asansol - WBPCB",26-04-2025 18:00:00,23.618183,87.105718,PM10,55,172,81
India,West_Bengal,Asansol,"Mahabir Colliery, Asansol - WBPCB",26-04-2025 18:00:00,23.618183,87.105718,NO2,9,68,18
India,West_Bengal,Asansol,"Mahabir Colliery, Asansol - WBPCB",26-04-2025 18:00:00,23.618183,87.105718,NH3,4,7,5
India,West_Bengal,Barrackpore,"SVSPA Campus, Barrackpore - WBPCB",26-04-2025 18:00:00,22.7605581,88.3617589,PM2.5,21,56,32
India,West_Bengal,Barrackpore,"SVSPA Campus, Barrackpore - WBPCB",26-04-2025 18:00:00,22.7605581,88.3617589,CO,28,34,31
India,Uttar_Pradesh,Prayagraj,"Motilal Nehru NIT, Prayagraj - UPPCB",26-04-2025 18:00:00,25.494,81.863,SO2,40,45,43
India,Uttar_Pradesh,Prayagraj,"Motilal Nehru NIT, Prayagraj - UPPCB",26-04-2025 18:00:00,25.494,81.863,CO,12,84,17
India,Uttar_Pradesh,Prayagraj,"Motilal Nehru NIT, Prayagraj - UPPCB",26-04-2025 18:00:00,25.494,81.863,OZONE,1,88,58
India,Uttar_Pradesh,Varanasi,"Ardhali Bazar, Varanasi - UPPCB",26-04-2025 18:00:00,25.3505986,82.9083074,PM10,18,146,91
India,Uttar_Pradesh,Varanasi,"Bhelupur, Varanasi - UPPCB",26-04-2025 18:00:00,25.301778,82.996789,PM2.5,13,53,34
India,Uttar_Pradesh,Varanasi,"Bhelupur, Varanasi - UPPCB",26-04-2025 18:00:00,25.301778,82.996789,CO,8,107,19
India,Uttar_Pradesh,Varanasi,"IESD Banaras Hindu University, Varanasi - UPPCB",26-04-2025 18:00:00,25.262326,82.995408,PM10,24,102,57
India,Uttar_Pradesh,Varanasi,"IESD Banaras Hindu University, Varanasi - UPPCB",26-04-2025 18:00:00,25.262326,82.995408,NH3,2,9,6
India,Uttar_Pradesh,Meerut,"Ganga Nagar, Meerut - UPPCB",26-04-2025 18:00:00,28.999264,77.7590354,PM10,NA,NA,NA
India,Uttar_Pradesh,Meerut,"Ganga Nagar, Meerut - UPPCB",26-04-2025 18:00:00,28.999264,77.7590354,NO2,14,135,58
India,Uttar_Pradesh,Meerut,"Jai Bhim Nagar, Meerut - UPPCB",26-04-2025 18:00:00,28.9535882,77.7622941,SO2,9,63,29
India,Uttar_Pradesh,Meerut,"Pallavpuram Phase 2, Meerut - UPPCB",26-04-2025 18:00:00,29.06351,77.709723,NO2,8,66,29
India,Uttar_Pradesh,Meerut,"Pallavpuram Phase 2, Meerut - UPPCB",26-04-2025 18:00:00,29.06351,77.709723,SO2,8,77,34
India,Uttar_Pradesh,Meerut,"Pallavpuram Phase 2, Meerut - UPPCB",26-04-2025 18:00:00,29.06351,77.709723,CO,10,94,23
India,Uttar_Pradesh,Moradabad,"Buddhi Vihar, Moradabad - UPPCB",26-04-2025 18:00:00,28.83526,78.7446,NO2,23,24,23
India,Uttar_Pradesh,Moradabad,"Eco Herbal Park, Moradabad - UPPCB",26-04-2025 18:00:00,28.840739,78.697531,PM2.5,9,88,45
India,Uttar_Pradesh,Greater Noida,"Knowledge Park - III, Greater Noida - UPPCB",26-04-2025 18:00:00,28.47272,77.482,PM10,48,238,159
India,Uttar_Pradesh,Greater Noida,"Knowledge Park - V, Greater Noida - UPPCB",26-04-2025 18:00:00,28.557054,77.453663,CO,2,120,29
India,Uttar_Pradesh,Hapur,"Anand Vihar, Hapur - UPPCB",26-04-2025 18:00:00,28.725645,77.749675,NH3,6,11,8
India,Uttar_Pradesh,Jhansi,"Shivaji Nagar, Jhansi - UPPCB",26-04-2025 18:00:00,25.4547,78.6039,PM2.5,35,236,97
India,Uttar_Pradesh,Jhansi,"Shivaji Nagar, Jhansi - UPPCB",26-04-2025 18:00:00,25.4547,78.6039,NH3,4,4,4
India,Uttar_Pradesh,Jhansi,"Shivaji Nagar, Jhansi - UPPCB",26-04-2025 18:00:00,25.4547,78.6039,OZONE,1,34,20
India,Uttar_Pradesh,Kanpur,"FTI Kidwai Nagar, Kanpur - UPPCB",26-04-2025 18:00:00,26.428282,80.327067,SO2,34,37,35
India,Uttar_Pradesh,Varanasi,"Maldahiya, Varanasi - UPPCB",26-04-2025 18:00:00,25.32393,82.99687,OZONE,1,68,12
India,Uttar_Pradesh,Vrindavan,"Omex Eternity, Vrindavan - UPPCB",26-04-2025 18:00:00,27.571409,77.655757,PM10,29,435,91
India,Uttarakhand,Dehradun,"Doon University, Dehradun - UKPCB",26-04-2025 18:00:00,30.269444,78.044167,CO,5,30,7
India,Uttarakhand,Rishikesh,"Shivaji Nagar, Rishikesh - UKPCB",26-04-2025 18:00:00,30.075911,78.2859547,SO2,2,5,4
India,West_Bengal,Asansol,"Asansol Court Area, Asansol - WBPCB",26-04-2025 18:00:00,23.685297,86.945968,NH3,5,16,9
India,West_Bengal,Asansol,"Asansol Court Area, Asansol - WBPCB",26-04-2025 18:00:00,23.685297,86.945968,SO2,1,55,11
India,Uttar_Pradesh,Moradabad,"Eco Herbal Park, Moradabad - UPPCB",26-04-2025 18:00:00,28.840739,78.697531,SO2,3,83,23
India,Uttar_Pradesh,Moradabad,"Employment Office, Moradabad - UPPCB",26-04-2025 18:00:00,28.88528,78.7388,PM10,36,131,84
India,Uttar_Pradesh,Moradabad,"Employment Office, Moradabad - UPPCB",26-04-2025 18:00:00,28.88528,78.7388,NO2,15,16,16
India,Uttar_Pradesh,Moradabad,"Kashiram Nagar, Moradabad - UPPCB",26-04-2025 18:00:00,28.849399,78.742362,PM2.5,18,148,81
India,Uttar_Pradesh,Moradabad,"Kashiram Nagar, Moradabad - UPPCB",26-04-2025 18:00:00,28.849399,78.742362,SO2,28,65,45
India,Uttar_Pradesh,Moradabad,"Transport Nagar, Moradabad - UPPCB",26-04-2025 18:00:00,28.802625,78.753728,PM2.5,15,159,58
India,Uttar_Pradesh,Moradabad,"Transport Nagar, Moradabad - UPPCB",26-04-2025 18:00:00,28.802625,78.753728,SO2,24,62,38
India,Uttar_Pradesh,Kanpur,"NSI Kalyanpur, Kanpur - UPPCB",26-04-2025 18:00:00,26.509954,80.249612,OZONE,16,18,17
India,Uttar_Pradesh,Kanpur,"Nehru Nagar, Kanpur - UPPCB",26-04-2025 18:00:00,26.4703136,80.3229863,PM10,NA,NA,NA
India,Uttar_Pradesh,Khurja,"Kalindi Kunj, Khurja - UPPCB",26-04-2025 18:00:00,28.2348927,77.8683002,NH3,1,1,1
India,Uttar_Pradesh,Lucknow,"B R Ambedkar University, Lucknow - UPPCB",26-04-2025 18:00:00,26.766433,80.927299,CO,10,34,16
India,Uttar_Pradesh,Lucknow,"Gomti Nagar, Lucknow - UPPCB",26-04-2025 18:00:00,26.86812,81.005119,CO,39,46,45
India,Uttar_Pradesh,Noida,"Sector-1, Noida - UPPCB",26-04-2025 18:00:00,28.5898,77.3101,NH3,5,19,11
India,Uttar_Pradesh,Noida,"Sector-1, Noida - UPPCB",26-04-2025 18:00:00,28.5898,77.3101,CO,10,119,19
India,Uttar_Pradesh,Noida,"Sector-1, Noida - UPPCB",26-04-2025 18:00:00,28.5898,77.3101,OZONE,6,299,174
India,Uttar_Pradesh,Noida,"Sector-116, Noida - UPPCB",26-04-2025 18:00:00,28.56923,77.393848,PM2.5,32,301,177
India,Uttar_Pradesh,Prayagraj,"Jhunsi, Prayagraj - UPPCB",26-04-2025 18:00:00,25.425602,81.917152,PM10,28,160,110
India,Uttar_Pradesh,Prayagraj,"Motilal Nehru NIT, Prayagraj - UPPCB",26-04-2025 18:00:00,25.494,81.863,NH3,3,5,5
India,Uttar_Pradesh,Lucknow,"Kukrail Picnic Spot-1, Lucknow - UPPCB",26-04-2025 18:00:00,26.90723,80.98579,SO2,17,31,18
India,Uttar_Pradesh,Lucknow,"Lalbagh, Lucknow - CPCB",26-04-2025 18:00:00,26.8458805,80.9365541,NH3,10,25,17
India,Uttar_Pradesh,Lucknow,"Lalbagh, Lucknow - CPCB",26-04-2025 18:00:00,26.8458805,80.9365541,OZONE,9,53,46
India,West_Bengal,Durgapur,"Mahishkapur Road_B-Zone, Durgapur - WBPCB",26-04-2025 18:00:00,23.567923,87.306843,CO,20,40,27
India,West_Bengal,Durgapur,"PCBL Residential Complex, Durgapur - WBPCB",26-04-2025 18:00:00,23.508764,87.35444,PM10,43,201,118
India,West_Bengal,Durgapur,"PCBL Residential Complex, Durgapur - WBPCB",26-04-2025 18:00:00,23.508764,87.35444,NO2,11,71,31
India,West_Bengal,Haldia,"Priyambada Housing Estate, Haldia - WBPCB",26-04-2025 18:00:00,22.06047,88.109737,NH3,4,5,4
India,West_Bengal,Howrah,"Dasnagar, Howrah - WBPCB",26-04-2025 18:00:00,22.6025571,88.3105664,CO,18,34,24
India,West_Bengal,Howrah,"Ghusuri, Howrah - WBPCB",26-04-2025 18:00:00,22.611968,88.347422,SO2,8,13,10
India,West_Bengal,Howrah,"Padmapukur, Howrah - WBPCB",26-04-2025 18:00:00,22.5687319,88.2797276,CO,5,38,21
India,West_Bengal,Kolkata,"Bidhannagar, Kolkata - WBPCB",26-04-2025 18:00:00,22.58157048,88.41002457,SO2,4,10,7
India,West_Bengal,Kolkata,"Bidhannagar, Kolkata - WBPCB",26-04-2025 18:00:00,22.58157048,88.41002457,CO,22,24,22
India,West_Bengal,Kolkata,"Bidhannagar, Kolkata - WBPCB",26-04-2025 18:00:00,22.58157048,88.41002457,OZONE,19,27,24
India,West_Bengal,Kolkata,"Fort William, Kolkata - WBPCB",26-04-2025 18:00:00,22.55664,88.342674,CO,22,29,24
India,West_Bengal,Kolkata,"Jadavpur, Kolkata - WBPCB",26-04-2025 18:00:00,22.49929,88.36917,PM10,49,82,65
India,West_Bengal,Kolkata,"Jadavpur, Kolkata - WBPCB",26-04-2025 18:00:00,22.49929,88.36917,CO,15,20,18
India,West_Bengal,Kolkata,"Rabindra Bharati University, Kolkata - WBPCB",26-04-2025 18:00:00,22.627847,88.380669,NH3,13,14,14
India,West_Bengal,Kolkata,"Rabindra Bharati University, Kolkata - WBPCB",26-04-2025 18:00:00,22.627847,88.380669,SO2,13,16,15
India,West_Bengal,Kolkata,"Rabindra Sarobar, Kolkata - WBPCB",26-04-2025 18:00:00,22.51106,88.35142,CO,8,12,11
India,West_Bengal,Kolkata,"Victoria, Kolkata - WBPCB",26-04-2025 18:00:00,22.5448082,88.3403691,PM2.5,20,52,36
India,West_Bengal,Kolkata,"Victoria, Kolkata - WBPCB",26-04-2025 18:00:00,22.5448082,88.3403691,NH3,4,5,5
India,West_Bengal,Siliguri,"Ward-32 Bapupara, Siliguri - WBPCB",26-04-2025 18:00:00,26.6879226,88.4152495,OZONE,26,61,47
India,Andhra_Pradesh,Visakhapatnam,"GVM Corporation, Visakhapatnam - APPCB",26-04-2025 18:00:00,17.72,83.3,PM2.5,26,81,47
India,Andhra_Pradesh,Visakhapatnam,"GVM Corporation, Visakhapatnam - APPCB",26-04-2025 18:00:00,17.72,83.3,PM10,56,236,100
India,Andhra_Pradesh,Visakhapatnam,"GVM Corporation, Visakhapatnam - APPCB",26-04-2025 18:00:00,17.72,83.3,NH3,1,2,1
India,Arunachal_Pradesh,Naharlagun,"Naharlagun, Naharlagun - APSPCB",26-04-2025 18:00:00,27.103358,93.679645,PM2.5,NA,NA,NA
India,Arunachal_Pradesh,Naharlagun,"Naharlagun, Naharlagun - APSPCB",26-04-2025 18:00:00,27.103358,93.679645,CO,NA,NA,NA
India,Assam,Byrnihat,"Central Academy for SFS, Byrnihat - PCBA",26-04-2025 18:00:00,26.071318,91.87488,PM2.5,32,335,182
India,Assam,Byrnihat,"Central Academy for SFS, Byrnihat - PCBA",26-04-2025 18:00:00,26.071318,91.87488,PM10,28,200,110
India,Assam,Byrnihat,"Central Academy for SFS, Byrnihat - PCBA",26-04-2025 18:00:00,26.071318,91.87488,NO2,7,32,17
India,Assam,Byrnihat,"Central Academy for SFS, Byrnihat - PCBA",26-04-2025 18:00:00,26.071318,91.87488,SO2,28,34,31
India,Assam,Byrnihat,"Central Academy for SFS, Byrnihat - PCBA",26-04-2025 18:00:00,26.071318,91.87488,OZONE,22,53,38
India,Assam,Guwahati,"IITG, Guwahati - PCBA",26-04-2025 18:00:00,26.2028636,91.70046436,PM10,46,106,76
India,Bihar,Manguraha,"Forest Rest House, Manguraha - BSPCB",26-04-2025 18:00:00,27.308328,84.531742,NO2,3,8,6
India,Bihar,Manguraha,"Forest Rest House, Manguraha - BSPCB",26-04-2025 18:00:00,27.308328,84.531742,CO,24,114,72
India,Bihar,Motihari,"Gandak Colony, Motihari - BSPCB",26-04-2025 18:00:00,26.63086,84.90051,PM2.5,NA,NA,NA
India,Bihar,Motihari,"Gandak Colony, Motihari - BSPCB",26-04-2025 18:00:00,26.63086,84.90051,NH3,3,3,3
India,Bihar,Motihari,"Gandak Colony, Motihari - BSPCB",26-04-2025 18:00:00,26.63086,84.90051,SO2,4,19,11
India,Bihar,Munger,"Town Hall, Munger - BSPCB",26-04-2025 18:00:00,25.376776,86.471523,PM2.5,35,117,72
India,Bihar,Muzaffarpur,"Buddha Colony, Muzaffarpur - BSPCB",26-04-2025 18:00:00,26.11442,85.39813,PM10,95,333,173
India,Bihar,Muzaffarpur,"Buddha Colony, Muzaffarpur - BSPCB",26-04-2025 18:00:00,26.11442,85.39813,NO2,5,51,21
India,Bihar,Bhagalpur,"Mayaganj, Bhagalpur - BSPCB",26-04-2025 18:00:00,25.265194,87.012947,OZONE,1,21,15
India,Bihar,Bihar Sharif,"D M Colony, Bihar Sharif - BSPCB",26-04-2025 18:00:00,25.204762,85.51496,PM2.5,NA,NA,NA
India,Bihar,Bihar Sharif,"D M Colony, Bihar Sharif - BSPCB",26-04-2025 18:00:00,25.204762,85.51496,NH3,NA,NA,NA
India,Bihar,Chhapra,"Darshan Nagar, Chhapra - BSPCB",26-04-2025 18:00:00,25.7808257,84.7446768,PM10,44,169,97
India,Bihar,Chhapra,"Darshan Nagar, Chhapra - BSPCB",26-04-2025 18:00:00,25.7808257,84.7446768,NO2,110,123,116
India,Bihar,Gaya,"Collectorate, Gaya - BSPCB",26-04-2025 18:00:00,24.7955,84.9994,NO2,6,15,10
India,Bihar,Gaya,"Kareemganj, Gaya - BSPCB",26-04-2025 18:00:00,24.792403,84.992416,PM10,59,292,148
India,Assam,Nalbari,"Bata Chowk, Nalbari - PCBA",26-04-2025 18:00:00,26.446912,91.439057,OZONE,11,18,14
India,Assam,Sivasagar,"Girls College, Sivasagar - PCBA",26-04-2025 18:00:00,26.987634,94.636574,NO2,15,24,18
India,Bihar,Araria,"Kharahiya Basti, Araria - BSPCB",26-04-2025 18:00:00,26.146529,87.454184,PM2.5,48,322,105
India,Bihar,Araria,"Kharahiya Basti, Araria - BSPCB",26-04-2025 18:00:00,26.146529,87.454184,SO2,27,40,32
India,Bihar,Arrah,"New DM Office, Arrah - BSPCB",26-04-2025 18:00:00,25.5626095,84.663264,OZONE,2,137,99
India,Bihar,Aurangabad,"Gurdeo Nagar, Aurangabad - BSPCB",26-04-2025 18:00:00,24.75746,84.366208,PM10,NA,NA,NA
India,Andhra_Pradesh,Anantapur,"Gulzarpet, Anantapur - APPCB",26-04-2025 18:00:00,14.675886,77.593027,PM10,36,74,53
India,Andhra_Pradesh,Anantapur,"Gulzarpet, Anantapur - APPCB",26-04-2025 18:00:00,14.675886,77.593027,NO2,25,109,39
India,Andhra_Pradesh,Chittoor,"Gangineni Cheruvu, Chittoor - APPCB",26-04-2025 18:00:00,13.20488,79.097889,NH3,6,7,6
India,Andhra_Pradesh,Kadapa,"Yerramukkapalli, Kadapa - APPCB",26-04-2025 18:00:00,14.465052,78.824187,NH3,7,8,7
India,Andhra_Pradesh,Tirumala,"Toll Gate, Tirumala - APPCB (Formerly known as Tirumala, Tirupati - APPCB)",26-04-2025 18:00:00,13.67,79.35,NO2,9,35,17
India,Andhra_Pradesh,Tirumala,"Toll Gate, Tirumala - APPCB (Formerly known as Tirumala, Tirupati - APPCB)",26-04-2025 18:00:00,13.67,79.35,SO2,2,15,8
India,Andhra_Pradesh,Tirumala,"Toll Gate, Tirumala - APPCB (Formerly known as Tirumala, Tirupati - APPCB)",26-04-2025 18:00:00,13.67,79.35,CO,11,42,25
India,Andhra_Pradesh,Vijayawada,"HB Colony, Vijayawada - APPCB",26-04-2025 18:00:00,16.536107,80.594233,PM2.5,39,68,50
India,Andhra_Pradesh,Vijayawada,"HB Colony, Vijayawada - APPCB",26-04-2025 18:00:00,16.536107,80.594233,NO2,13,22,14
India,Andhra_Pradesh,Vijayawada,"Kanuru, Vijayawada - APPCB",26-04-2025 18:00:00,16.486692,80.699436,PM2.5,51,66,58
India,Andhra_Pradesh,Vijayawada,"Kanuru, Vijayawada - APPCB",26-04-2025 18:00:00,16.486692,80.699436,SO2,11,22,14
India,Bihar,Gaya,"SFTI Kusdihra, Gaya - BSPCB",26-04-2025 18:00:00,24.762518,84.982348,PM2.5,17,85,51
India,Bihar,Gaya,"SFTI Kusdihra, Gaya - BSPCB",26-04-2025 18:00:00,24.762518,84.982348,CO,14,59,20
India,Bihar,Katihar,"Mirchaibari, Katihar - BSPCB",26-04-2025 18:00:00,25.560083,87.553265,PM10,35,84,61
India,Bihar,Katihar,"Mirchaibari, Katihar - BSPCB",26-04-2025 18:00:00,25.560083,87.553265,SO2,12,33,21
India,Bihar,Kishanganj,"SDM Office_Khagra, Kishanganj - BSPCB",26-04-2025 18:00:00,26.0881305,87.93840336,SO2,6,9,7
India,Bihar,Begusarai,"Lohiyanagar, Begusarai - BSPCB",26-04-2025 18:00:00,25.42742023,86.13886079,SO2,1,53,34
India,Bihar,Bettiah,"Kamalnath Nagar, Bettiah - BSPCB",26-04-2025 18:00:00,26.80365,84.51954,NH3,5,6,6
India,Bihar,Bhagalpur,"DM Office_Kachari Chowk, Bhagalpur - BSPCB",26-04-2025 18:00:00,25.251013,86.989001,PM10,34,112,59
India,Bihar,Bhagalpur,"Mayaganj, Bhagalpur - BSPCB",26-04-2025 18:00:00,25.265194,87.012947,PM2.5,37,312,111
India,Andaman and Nicobar,Sri Vijaya Puram,"Police Line, Sri Vijaya Puram - ANPCC",26-04-2025 18:00:00,11.654054,92.734055,CO,10,33,19
India,Andhra_Pradesh,Amaravati,"Secretariat, Amaravati - APPCB",26-04-2025 18:00:00,16.5150833,80.5181667,NO2,36,57,43
India,Andhra_Pradesh,Amaravati,"Secretariat, Amaravati - APPCB",26-04-2025 18:00:00,16.5150833,80.5181667,NH3,1,2,2
India,Andhra_Pradesh,Amaravati,"Secretariat, Amaravati - APPCB",26-04-2025 18:00:00,16.5150833,80.5181667,OZONE,2,34,24
India,Assam,Guwahati,"IITG, Guwahati - PCBA",26-04-2025 18:00:00,26.2028636,91.70046436,NO2,1,6,2
India,Assam,Guwahati,"LGBI Airport, Guwahati - PCBA",26-04-2025 18:00:00,26.10887,91.589544,NO2,15,20,18
India,Assam,Guwahati,"LGBI Airport, Guwahati - PCBA",26-04-2025 18:00:00,26.10887,91.589544,SO2,10,15,12
India,Assam,Guwahati,"Railway Colony, Guwahati - PCBA",26-04-2025 18:00:00,26.181742,91.78063,CO,26,102,28
India,Chhattisgarh,Chhal,"Nawapara SECL Colony, Chhal - CECB",26-04-2025 18:00:00,22.118125,83.140608,CO,28,42,35
India,Chhattisgarh,Chhal,"Nawapara SECL Colony, Chhal - CECB",26-04-2025 18:00:00,22.118125,83.140608,OZONE,21,86,63
India,Chhattisgarh,Korba,"Rampur, Korba - CECB",26-04-2025 18:00:00,22.368195,82.746431,NO2,22,51,27
India,Chhattisgarh,Korba,"Rampur, Korba - CECB",26-04-2025 18:00:00,22.368195,82.746431,SO2,17,99,30
India,Chhattisgarh,Korba,"Rampur, Korba - CECB",26-04-2025 18:00:00,22.368195,82.746431,CO,30,60,40
India,Chhattisgarh,Kunjemura,"OP Jindal School, Kunjemura - CECB",26-04-2025 18:00:00,22.12665,83.483212,NO2,28,53,39
India,Chhattisgarh,Raipur,"AIIMS, Raipur - CECB",26-04-2025 18:00:00,21.258815,81.578979,SO2,3,15,7
India,Bihar,Patna,"Muradpur, Patna - BSPCB",26-04-2025 18:00:00,25.619651,85.147382,PM2.5,68,498,288
India,Bihar,Patna,"Rajbansi Nagar, Patna - BSPCB",26-04-2025 18:00:00,25.599486,85.113666,SO2,3,4,4
India,Bihar,Patna,"Rajbansi Nagar, Patna - BSPCB",26-04-2025 18:00:00,25.599486,85.113666,CO,7,194,26
India,Bihar,Patna,"Samanpura, Patna - BSPCB",26-04-2025 18:00:00,25.596727,85.085624,PM2.5,79,312,224
India,Bihar,Patna,"Samanpura, Patna - BSPCB",26-04-2025 18:00:00,25.596727,85.085624,NO2,39,52,45
India,Bihar,Patna,"Samanpura, Patna - BSPCB",26-04-2025 18:00:00,25.596727,85.085624,NH3,6,7,6
India,Bihar,Purnia,"Mariam Nagar, Purnia - BSPCB",26-04-2025 18:00:00,25.366336,87.117468,NO2,16,22,19
India,Chhattisgarh,Raipur,"Bhatagaon New ISBT, Raipur - CECB",26-04-2025 18:00:00,21.219665,81.630094,NO2,NA,NA,NA
India,Chhattisgarh,Raipur,"Bhatagaon New ISBT, Raipur - CECB",26-04-2025 18:00:00,21.219665,81.630094,CO,NA,NA,NA
India,Chhattisgarh,Raipur,"Siltara Phase-II, Raipur - CECB",26-04-2025 18:00:00,21.371751,81.664929,PM2.5,44,297,121
India,Chhattisgarh,Raipur,"Siltara Phase-II, Raipur - CECB",26-04-2025 18:00:00,21.371751,81.664929,PM10,NA,NA,NA
India,Chhattisgarh,Raipur,"Siltara Phase-II, Raipur - CECB",26-04-2025 18:00:00,21.371751,81.664929,OZONE,5,28,20
India,Chhattisgarh,Tumidih,"OP Jindal Industrial Park, Tumidih - CECB",26-04-2025 18:00:00,22.06631475,83.33820077,PM10,113,397,202
India,Chhattisgarh,Bhilai,"32Bungalows, Bhilai - CECB",26-04-2025 18:00:00,21.194815,81.31477,SO2,10,30,19
India,Chhattisgarh,Bhilai,"32Bungalows, Bhilai - CECB",26-04-2025 18:00:00,21.194815,81.31477,CO,10,56,12
India,Chhattisgarh,Bhilai,"Civic Center, Bhilai - Bhilai Steel Plant",26-04-2025 18:00:00,21.185571,81.343175,PM2.5,31,59,40
India,Chhattisgarh,Bhilai,"Civic Center, Bhilai - Bhilai Steel Plant",26-04-2025 18:00:00,21.185571,81.343175,OZONE,9,22,20
India,Chhattisgarh,Chhal,"Nawapara SECL Colony, Chhal - CECB",26-04-2025 18:00:00,22.118125,83.140608,PM10,65,127,93
India,Chhattisgarh,Chhal,"Nawapara SECL Colony, Chhal - CECB",26-04-2025 18:00:00,22.118125,83.140608,NH3,7,7,7
India,Bihar,Siwan,"Chitragupta Nagar, Siwan - BSPCB",26-04-2025 18:00:00,26.2271665,84.3570427,CO,64,108,82
India,Chandigarh,Chandigarh,"Sector 22, Chandigarh - CPCC",26-04-2025 18:00:00,30.735567,76.775714,PM10,19,92,50
India,Chandigarh,Chandigarh,"Sector 22, Chandigarh - CPCC",26-04-2025 18:00:00,30.735567,76.775714,NO2,17,142,64
India,Chandigarh,Chandigarh,"Sector-25, Chandigarh - CPCC",26-04-2025 18:00:00,30.751462,76.762879,PM10,46,122,86
India,Chhattisgarh,Bhilai,"32Bungalows, Bhilai - CECB",26-04-2025 18:00:00,21.194815,81.31477,PM10,36,63,48
India,Delhi,Delhi,"CRRI Mathura Road, Delhi - IMD",26-04-2025 18:00:00,28.5512005,77.2735737,PM2.5,53,360,226
India,Delhi,Delhi,"CRRI Mathura Road, Delhi - IMD",26-04-2025 18:00:00,28.5512005,77.2735737,PM10,106,461,295
India,Delhi,Delhi,"DTU, Delhi - CPCB",26-04-2025 18:00:00,28.7500499,77.1112615,PM10,94,500,301
India,Delhi,Delhi,"Dr. Karni Singh Shooting Range, Delhi - DPCC",26-04-2025 18:00:00,28.498571,77.26484,NH3,1,9,6
India,Delhi,Delhi,"Dr. Karni Singh Shooting Range, Delhi - DPCC",26-04-2025 18:00:00,28.498571,77.26484,SO2,5,52,27
India,Delhi,Delhi,"Anand Vihar, Delhi - DPCC",26-04-2025 18:00:00,28.647622,77.315809,NO2,45,203,135
India,Delhi,Delhi,"Anand Vihar, Delhi - DPCC",26-04-2025 18:00:00,28.647622,77.315809,NH3,3,19,9
India,Delhi,Delhi,"Ashok Vihar, Delhi - DPCC",26-04-2025 18:00:00,28.695381,77.181665,PM2.5,42,410,267
India,Delhi,Delhi,"Ashok Vihar, Delhi - DPCC",26-04-2025 18:00:00,28.695381,77.181665,PM10,102,464,296
India,Delhi,Delhi,"Ashok Vihar, Delhi - DPCC",26-04-2025 18:00:00,28.695381,77.181665,NO2,23,158,97
India,Delhi,Delhi,"Ashok Vihar, Delhi - DPCC",26-04-2025 18:00:00,28.695381,77.181665,SO2,7,50,24
India,Bihar,Rajgir,"Dangi Tola, Rajgir - BSPCB",26-04-2025 18:00:00,25.0328,85.41948,NO2,8,10,9
India,Bihar,Saharsa,"Police Line, Saharsa - BSPCB",26-04-2025 18:00:00,25.892357,86.590325,NO2,5,8,7
India,Bihar,Saharsa,"Police Line, Saharsa - BSPCB",26-04-2025 18:00:00,25.892357,86.590325,CO,15,102,55
India,Bihar,Siwan,"Chitragupta Nagar, Siwan - BSPCB",26-04-2025 18:00:00,26.2271665,84.3570427,PM2.5,25,143,73
India,Bihar,Muzaffarpur,"Buddha Colony, Muzaffarpur - BSPCB",26-04-2025 18:00:00,26.11442,85.39813,OZONE,9,189,152
India,Bihar,Muzaffarpur,"MIT-Daudpur Kothi, Muzaffarpur - BSPCB",26-04-2025 18:00:00,26.1403345,85.3650192,CO,74,124,105
India,Bihar,Patna,"DRM Office Danapur, Patna - BSPCB",26-04-2025 18:00:00,25.586562,85.043586,NH3,2,3,3
India,Gujarat,Gandhinagar,"IIPHG Lekawada, Gandhinagar - IITM",26-04-2025 18:00:00,23.243639,72.68994,OZONE,4,174,120
India,Gujarat,Gandhinagar,"Sector-10, Gandhinagar - GPCB",26-04-2025 18:00:00,23.221714,72.654328,PM2.5,30,50,42
India,Gujarat,Gandhinagar,"Sector-10, Gandhinagar - GPCB",26-04-2025 18:00:00,23.221714,72.654328,CO,24,27,25
India,Gujarat,Vapi,"Phase-1 GIDC, Vapi - GPCB",26-04-2025 18:00:00,20.362421,72.918013,SO2,33,38,35
India,Gujarat,Vapi,"Phase-1 GIDC, Vapi - GPCB",26-04-2025 18:00:00,20.362421,72.918013,OZONE,2,2,2
India,Gujarat,Vatva,"Phase-4 GIDC, Vatva - GPCB",26-04-2025 18:00:00,22.969611,72.6435,NO2,NA,NA,NA
India,Haryana,Gurugram,"NISE Gwal Pahari, Gurugram - IMD",26-04-2025 18:00:00,28.422681,77.148944,PM10,82,262,142
India,Haryana,Gurugram,"NISE Gwal Pahari, Gurugram - IMD",26-04-2025 18:00:00,28.422681,77.148944,NO2,5,122,50
India,Delhi,Delhi,"Okhla Phase-2, Delhi - DPCC",26-04-2025 18:00:00,28.530785,77.271255,PM10,86,476,292
India,Delhi,Delhi,"Okhla Phase-2, Delhi - DPCC",26-04-2025 18:00:00,28.530785,77.271255,NO2,51,245,143
India,Delhi,Delhi,"Patparganj, Delhi - DPCC",26-04-2025 18:00:00,28.623763,77.287209,PM10,105,439,267
India,Delhi,Delhi,"Patparganj, Delhi - DPCC",26-04-2025 18:00:00,28.623763,77.287209,CO,59,107,74
India,Delhi,Delhi,"Punjabi Bagh, Delhi - DPCC",26-04-2025 18:00:00,28.674045,77.131023,SO2,NA,NA,NA
India,Delhi,Delhi,"Punjabi Bagh, Delhi - DPCC",26-04-2025 18:00:00,28.674045,77.131023,OZONE,4,17,9
India,Delhi,Delhi,"Pusa, Delhi - DPCC",26-04-2025 18:00:00,28.639652,77.146275,NO2,97,172,128
India,Delhi,Delhi,"Pusa, Delhi - DPCC",26-04-2025 18:00:00,28.639652,77.146275,CO,8,80,16
India,Delhi,Delhi,"Pusa, Delhi - IMD",26-04-2025 18:00:00,28.63611,77.173332,PM2.5,NA,NA,NA
India,Delhi,Delhi,"Pusa, Delhi - IMD",26-04-2025 18:00:00,28.63611,77.173332,NO2,NA,NA,NA
India,Delhi,Delhi,"Pusa, Delhi - IMD",26-04-2025 18:00:00,28.63611,77.173332,OZONE,77,138,118
India,Delhi,Delhi,"Rohini, Delhi - DPCC",26-04-2025 18:00:00,28.732528,77.11992,PM10,107,500,337
India,Delhi,Delhi,"Rohini, Delhi - DPCC",26-04-2025 18:00:00,28.732528,77.11992,SO2,2,97,20
India,Delhi,Delhi,"Shadipur, Delhi - CPCB",26-04-2025 18:00:00,28.6514781,77.1473105,PM2.5,24,398,235
India,Delhi,Delhi,"Sirifort, Delhi - CPCB",26-04-2025 18:00:00,28.5504249,77.2159377,PM10,105,500,256
India,Delhi,Delhi,"Sirifort, Delhi - CPCB",26-04-2025 18:00:00,28.5504249,77.2159377,SO2,37,46,41
India,Delhi,Delhi,"Sonia Vihar, Delhi - DPCC",26-04-2025 18:00:00,28.710508,77.249485,NO2,16,160,70
India,Delhi,Delhi,"Sonia Vihar, Delhi - DPCC",26-04-2025 18:00:00,28.710508,77.249485,CO,18,128,33
India,Delhi,Delhi,"Mundka, Delhi - DPCC",26-04-2025 18:00:00,28.684678,77.076574,CO,16,98,23
India,Delhi,Delhi,"NSIT Dwarka, Delhi - CPCB",26-04-2025 18:00:00,28.60909,77.0325413,NH3,7,9,8
India,Delhi,Delhi,"Nehru Nagar, Delhi - DPCC",26-04-2025 18:00:00,28.56789,77.250515,PM10,84,385,217
India,Delhi,Delhi,"Nehru Nagar, Delhi - DPCC",26-04-2025 18:00:00,28.56789,77.250515,NH3,5,16,8
India,Delhi,Delhi,"North Campus, DU, Delhi - IMD",26-04-2025 18:00:00,28.6573814,77.1585447,PM10,194,415,275
India,Delhi,Delhi,"North Campus, DU, Delhi - IMD",26-04-2025 18:00:00,28.6573814,77.1585447,NO2,131,231,169
India,Delhi,Delhi,"North Campus, DU, Delhi - IMD",26-04-2025 18:00:00,28.6573814,77.1585447,CO,69,123,69
India,Gujarat,Ahmedabad,"Rakhial, Ahmedabad - IITM",26-04-2025 18:00:00,23.016834,72.625775,PM2.5,68,140,89
India,Gujarat,Ahmedabad,"Rakhial, Ahmedabad - IITM",26-04-2025 18:00:00,23.016834,72.625775,NH3,7,8,8
India,Gujarat,Ahmedabad,"Rakhial, Ahmedabad - IITM",26-04-2025 18:00:00,23.016834,72.625775,SO2,24,106,52
India,Gujarat,Ahmedabad,"Rakhial, Ahmedabad - IITM",26-04-2025 18:00:00,23.016834,72.625775,OZONE,4,90,67
India,Gujarat,Ahmedabad,"SAC ISRO Satellite, Ahmedabad - IITM",26-04-2025 18:00:00,23.023389,72.515201,NH3,2,3,3
India,Delhi,Delhi,"Jawaharlal Nehru Stadium, Delhi - DPCC",26-04-2025 18:00:00,28.58028,77.233829,NO2,33,172,91
India,Delhi,Delhi,"Lodhi Road, Delhi - IITM",26-04-2025 18:00:00,28.588333,77.221667,PM10,61,176,106
India,Delhi,Delhi,"Lodhi Road, Delhi - IITM",26-04-2025 18:00:00,28.588333,77.221667,SO2,1,29,12
India,Delhi,Delhi,"Mandir Marg, Delhi - DPCC",26-04-2025 18:00:00,28.636429,77.201067,NH3,4,7,6
India,Delhi,Delhi,"Vivek Vihar, Delhi - DPCC",26-04-2025 18:00:00,28.672342,77.31526,PM10,NA,NA,NA
India,Delhi,Delhi,"Vivek Vihar, Delhi - DPCC",26-04-2025 18:00:00,28.672342,77.31526,CO,27,107,55
India,Delhi,Delhi,"Wazirpur, Delhi - DPCC",26-04-2025 18:00:00,28.699793,77.165453,NO2,64,259,159
India,Gujarat,Ahmedabad,"Gyaspur, Ahmedabad - IITM",26-04-2025 18:00:00,22.977134,72.553024,PM10,NA,NA,NA
India,Gujarat,Ankleshwar,"GIDC, Ankleshwar - GPCB",26-04-2025 18:00:00,21.613267,73.010555,CO,42,45,44
India,Gujarat,Gandhinagar,"GIFT City, Gandhinagar - IITM",26-04-2025 18:00:00,23.163798,72.677768,PM2.5,67,194,95
India,Gujarat,Gandhinagar,"IIPHG Lekawada, Gandhinagar - IITM",26-04-2025 18:00:00,23.243639,72.68994,SO2,8,85,20
India,Delhi,Delhi,"IGI Airport (T3), Delhi - IMD",26-04-2025 18:00:00,28.5627763,77.1180053,OZONE,6,135,98
India,Himachal Pradesh,Baddi,"HIMUDA Complex Phase-1, Baddi - HPPCB",26-04-2025 18:00:00,30.943887,76.801991,PM2.5,15,163,45
India,Himachal Pradesh,Baddi,"HIMUDA Complex Phase-1, Baddi - HPPCB",26-04-2025 18:00:00,30.943887,76.801991,OZONE,21,186,152
India,Jammu_and_Kashmir,Srinagar,"Rajbagh, Srinagar - JKSPCB",26-04-2025 18:00:00,34.066206,74.81982,PM2.5,49,73,60
India,Jharkhand,Dhanbad,"Sardar Patel Nagar, Dhanbad - JSPCB",26-04-2025 18:00:00,23.80569,86.44268,OZONE,15,65,58
India,Karnataka,Bagalkot,"Vidayagiri, Bagalkot - KSPCB",26-04-2025 18:00:00,16.172806,75.659694,PM2.5,33,34,33
India,Karnataka,Bagalkot,"Vidayagiri, Bagalkot - KSPCB",26-04-2025 18:00:00,16.172806,75.659694,PM10,45,46,46
India,Karnataka,Bagalkot,"Vidayagiri, Bagalkot - KSPCB",26-04-2025 18:00:00,16.172806,75.659694,NH3,1,2,1
India,Karnataka,Bagalkot,"Vidayagiri, Bagalkot - KSPCB",26-04-2025 18:00:00,16.172806,75.659694,SO2,7,7,7
India,Karnataka,Bagalkot,"Vidayagiri, Bagalkot - KSPCB",26-04-2025 18:00:00,16.172806,75.659694,OZONE,10,16,16
India,Karnataka,Belgaum,"Ramteerth Nagar, Belgaum - KSPCB",26-04-2025 18:00:00,15.888653,74.541751,PM10,12,34,24
India,Karnataka,Belgaum,"Ramteerth Nagar, Belgaum - KSPCB",26-04-2025 18:00:00,15.888653,74.541751,NH3,1,4,2
India,Karnataka,Belgaum,"Ramteerth Nagar, Belgaum - KSPCB",26-04-2025 18:00:00,15.888653,74.541751,OZONE,19,20,20
India,Kerala,Kollam,"Polayathode, Kollam - Kerala PCB",26-04-2025 18:00:00,8.8787,76.6073,OZONE,31,37,36
India,Kerala,Thiruvananthapuram,"Kariavattom, Thiruvananthapuram - Kerala PCB",26-04-2025 18:00:00,8.5637,76.8865,PM2.5,38,42,40
India,Kerala,Thiruvananthapuram,"Kariavattom, Thiruvananthapuram - Kerala PCB",26-04-2025 18:00:00,8.5637,76.8865,NO2,6,7,7
India,Kerala,Thiruvananthapuram,"Kariavattom, Thiruvananthapuram - Kerala PCB",26-04-2025 18:00:00,8.5637,76.8865,NH3,1,1,1
India,Kerala,Thiruvananthapuram,"Kariavattom, Thiruvananthapuram - Kerala PCB",26-04-2025 18:00:00,8.5637,76.8865,SO2,1,9,5
India,Kerala,Thiruvananthapuram,"Kariavattom, Thiruvananthapuram - Kerala PCB",26-04-2025 18:00:00,8.5637,76.8865,CO,18,56,24
India,Kerala,Thiruvananthapuram,"Kariavattom, Thiruvananthapuram - Kerala PCB",26-04-2025 18:00:00,8.5637,76.8865,OZONE,36,37,37
India,Kerala,Thiruvananthapuram,"Plammoodu, Thiruvananthapuram - Kerala PCB",26-04-2025 18:00:00,8.5149093,76.9435879,PM10,20,87,44
India,Kerala,Thiruvananthapuram,"Plammoodu, Thiruvananthapuram - Kerala PCB",26-04-2025 18:00:00,8.5149093,76.9435879,NO2,6,14,10
India,Kerala,Thiruvananthapuram,"Plammoodu, Thiruvananthapuram - Kerala PCB",26-04-2025 18:00:00,8.5149093,76.9435879,NH3,2,2,2
India,Kerala,Thrissur,"Corporation Ground, Thrissur - Kerala PCB",26-04-2025 18:00:00,10.5324,76.2159,CO,20,40,37
India,Madhya Pradesh,Bhopal,"Idgah Hills, Bhopal - MPPCB",26-04-2025 18:00:00,23.264759,77.381568,NH3,4,11,6
India,Karnataka,Bengaluru,"RVCE-Mailasandra, Bengaluru - KSPCB",26-04-2025 18:00:00,12.921418,77.502466,NH3,3,4,4
India,Karnataka,Bengaluru,"RVCE-Mailasandra, Bengaluru - KSPCB",26-04-2025 18:00:00,12.921418,77.502466,CO,26,48,36
India,Karnataka,Bengaluru,"Sanegurava Halli, Bengaluru - KSPCB",26-04-2025 18:00:00,12.990328,77.5431385,SO2,6,7,7
India,Karnataka,Bengaluru,"Shivapura_Peenya, Bengaluru - KSPCB",26-04-2025 18:00:00,13.0246342,77.5080115,PM2.5,42,42,42
India,Karnataka,Bengaluru,"Shivapura_Peenya, Bengaluru - KSPCB",26-04-2025 18:00:00,13.0246342,77.5080115,NO2,8,11,8
India,Karnataka,Bengaluru,"Shivapura_Peenya, Bengaluru - KSPCB",26-04-2025 18:00:00,13.0246342,77.5080115,SO2,3,10,6
India,Karnataka,Bengaluru,"Shivapura_Peenya, Bengaluru - KSPCB",26-04-2025 18:00:00,13.0246342,77.5080115,CO,23,50,32
India,Karnataka,Bengaluru,"Shivapura_Peenya, Bengaluru - KSPCB",26-04-2025 18:00:00,13.0246342,77.5080115,OZONE,18,21,19
India,Karnataka,Bengaluru,"Silk Board, Bengaluru - KSPCB",26-04-2025 18:00:00,12.917348,77.622813,PM2.5,35,82,54
India,Karnataka,Chamarajanagar,"Urban, Chamarajanagar - KSPCB",26-04-2025 18:00:00,11.55358,76.55521,PM10,44,46,45
India,Karnataka,Chikkaballapur,"Chikkaballapur Rural, Chikkaballapur - KSPCB",26-04-2025 18:00:00,13.428828,77.731418,CO,8,18,11
India,Karnataka,Chikkamagaluru,"Kalyana Nagara, Chikkamagaluru - KSPCB",26-04-2025 18:00:00,13.328028,75.797056,NO2,23,29,27
India,Karnataka,Chikkamagaluru,"Kalyana Nagara, Chikkamagaluru - KSPCB",26-04-2025 18:00:00,13.328028,75.797056,NH3,2,4,3
India,Karnataka,Chikkamagaluru,"Kalyana Nagara, Chikkamagaluru - KSPCB",26-04-2025 18:00:00,13.328028,75.797056,OZONE,23,39,23
India,Karnataka,Davanagere,"Devaraj Urs Badavane, Davanagere - KSPCB",26-04-2025 18:00:00,14.4758,75.9052,PM2.5,14,91,44
India,Karnataka,Davanagere,"Devaraj Urs Badavane, Davanagere - KSPCB",26-04-2025 18:00:00,14.4758,75.9052,NO2,6,15,12
India,Karnataka,Davanagere,"Devaraj Urs Badavane, Davanagere - KSPCB",26-04-2025 18:00:00,14.4758,75.9052,SO2,2,35,8
India,Karnataka,Davanagere,"Devaraj Urs Badavane, Davanagere - KSPCB",26-04-2025 18:00:00,14.4758,75.9052,OZONE,19,20,19
India,Karnataka,Dharwad,"Kalabhavan, Dharwad - KSPCB",26-04-2025 18:00:00,15.459706,75.008381,NH3,5,5,5
India,Karnataka,Ramanagara,"Vijay Nagar, Ramanagara - KSPCB",26-04-2025 18:00:00,12.733409,77.298051,NH3,1,3,3
India,Karnataka,Shivamogga,"Vinoba Nagara, Shivamogga - KSPCB",26-04-2025 18:00:00,13.94,75.555917,CO,8,32,23
India,Kerala,Eloor,"Udyogamandal, Eloor - Kerala PCB",26-04-2025 18:00:00,10.073232,76.302765,NO2,7,8,8
India,Kerala,Kannur,"Thavakkara, Kannur - Kerala PCB",26-04-2025 18:00:00,11.875,75.3732,PM2.5,49,55,52
India,Kerala,Kannur,"Thavakkara, Kannur - Kerala PCB",26-04-2025 18:00:00,11.875,75.3732,PM10,55,62,58
India,Kerala,Kannur,"Thavakkara, Kannur - Kerala PCB",26-04-2025 18:00:00,11.875,75.3732,CO,23,26,24
India,Kerala,Kollam,"Polayathode, Kollam - Kerala PCB",26-04-2025 18:00:00,8.8787,76.6073,PM10,69,78,73
India,Karnataka,Hubballi,"Lingaraj Nagar, Hubballi - KSPCB",26-04-2025 18:00:00,15.3714823,75.1160168,NO2,7,7,7
India,Karnataka,Hubballi,"Lingaraj Nagar, Hubballi - KSPCB",26-04-2025 18:00:00,15.3714823,75.1160168,SO2,2,5,2
India,Karnataka,Kalaburagi,"Mahatma Basaveswar Colony, Kalaburgi - KSPCB",26-04-2025 18:00:00,17.336318,76.847397,NO2,10,18,12
India,Karnataka,Kalaburagi,"Mahatma Basaveswar Colony, Kalaburgi - KSPCB",26-04-2025 18:00:00,17.336318,76.847397,OZONE,3,14,11
India,Karnataka,Koppal,"Diwator Nagar, Koppal - KSPCB",26-04-2025 18:00:00,15.34763,76.181767,OZONE,23,47,39
India,Karnataka,Mysuru,"Hebbal 1st Stage, Mysuru - KSPCB",26-04-2025 18:00:00,12.21041,76.37376,SO2,1,29,11
India,Karnataka,Bengaluru,"BTM Layout, Bengaluru - CPCB",26-04-2025 18:00:00,12.9135218,77.5950804,NH3,NA,NA,NA
India,Karnataka,Bengaluru,"Bapuji Nagar, Bengaluru - KSPCB",26-04-2025 18:00:00,12.951913,77.539784,PM10,52,107,75
India,Karnataka,Bengaluru,"Hebbal, Bengaluru - KSPCB",26-04-2025 18:00:00,13.029152,77.585901,PM10,60,129,85
India,Karnataka,Bengaluru,"Hombegowda Nagar, Bengaluru - KSPCB",26-04-2025 18:00:00,12.938539,77.5901,PM10,30,71,50
India,Karnataka,Bengaluru,"Hombegowda Nagar, Bengaluru - KSPCB",26-04-2025 18:00:00,12.938539,77.5901,NO2,5,41,13
India,Karnataka,Bengaluru,"Jayanagar 5th Block, Bengaluru - KSPCB",26-04-2025 18:00:00,12.920984,77.584908,NO2,9,13,12
India,Karnataka,Bengaluru,"Jayanagar 5th Block, Bengaluru - KSPCB",26-04-2025 18:00:00,12.920984,77.584908,SO2,2,13,8
India,Karnataka,Bengaluru,"Jayanagar 5th Block, Bengaluru - KSPCB",26-04-2025 18:00:00,12.920984,77.584908,CO,1,26,10
India,Karnataka,Bengaluru,"Jigani, Bengaluru - KSPCB",26-04-2025 18:00:00,12.7816279,77.6299145,NH3,7,7,7
India,Karnataka,Bengaluru,"Peenya, Bengaluru - CPCB",26-04-2025 18:00:00,13.0270199,77.494094,NH3,4,7,5
India,Madhya Pradesh,Bhopal,"Paryavaran Parisar, Bhopal - MPPCB",26-04-2025 18:00:00,23.210494,77.425409,SO2,8,19,12
India,Madhya Pradesh,Gwalior,"City Center, Gwalior - MPPCB",26-04-2025 18:00:00,26.203442,78.193251,NH3,1,2,2
India,Maharashtra,Chandrapur,"MIDC Khutala, Chandrapur - MPCB",26-04-2025 18:00:00,19.9775302,79.2337086,OZONE,39,185,152
India,Maharashtra,Jalgaon,"Prabhat Colony, Jalgaon - MPCB",26-04-2025 18:00:00,21.001264,75.565602,PM2.5,70,97,84
India,Maharashtra,Jalgaon,"Prabhat Colony, Jalgaon - MPCB",26-04-2025 18:00:00,21.001264,75.565602,OZONE,22,90,53
India,Maharashtra,Jalna,"Old MIDC, Jalna - MPCB",26-04-2025 18:00:00,19.854616,75.905894,PM2.5,62,178,111
India,Maharashtra,Jalna,"Old MIDC, Jalna - MPCB",26-04-2025 18:00:00,19.854616,75.905894,NO2,15,28,21
India,Maharashtra,Kalyan,"Khadakpada, Kalyan - MPCB",26-04-2025 18:00:00,19.25292,73.142019,SO2,4,5,4
India,Maharashtra,Kalyan,"Khadakpada, Kalyan - MPCB",26-04-2025 18:00:00,19.25292,73.142019,CO,6,8,6
India,Maharashtra,Kalyan,"Pimpleshwar Mandir, Kalyan - MPCB",26-04-2025 18:00:00,19.192056,72.9585188,PM2.5,19,20,19
India,Maharashtra,Kalyan,"Pimpleshwar Mandir, Kalyan - MPCB",26-04-2025 18:00:00,19.192056,72.9585188,NO2,19,33,24
India,Maharashtra,Kalyan,"Pimpleshwar Mandir, Kalyan - MPCB",26-04-2025 18:00:00,19.192056,72.9585188,SO2,20,26,23
India,Maharashtra,Kolhapur,"Shivaji University, Kolhapur - MPCB",26-04-2025 18:00:00,16.6870449,74.2505872,NO2,1,2,1
India,Maharashtra,Kolhapur,"Shivaji University, Kolhapur - MPCB",26-04-2025 18:00:00,16.6870449,74.2505872,SO2,1,3,2
India,Maharashtra,Kolhapur,"Sinchan Bhavan, Kolhapur - MPCB",26-04-2025 18:00:00,16.7143745,74.2426398,PM2.5,17,71,36
India,Maharashtra,Kolhapur,"Sinchan Bhavan, Kolhapur - MPCB",26-04-2025 18:00:00,16.7143745,74.2426398,SO2,1,2,1
India,Maharashtra,Kolhapur,"Sinchan Bhavan, Kolhapur - MPCB",26-04-2025 18:00:00,16.7143745,74.2426398,OZONE,8,48,44
India,Maharashtra,Latur,"Sawe Wadi, Latur - MPCB",26-04-2025 18:00:00,18.39963,76.57452,PM2.5,31,307,75
India,Maharashtra,Latur,"Sawe Wadi, Latur - MPCB",26-04-2025 18:00:00,18.39963,76.57452,PM10,22,142,63
India,Maharashtra,Latur,"Sawe Wadi, Latur - MPCB",26-04-2025 18:00:00,18.39963,76.57452,NO2,7,36,21
India,Maharashtra,Mahad,"Kamble Tarf Birwadi, Mahad - MPCB",26-04-2025 18:00:00,18.1023399,73.4783687,NO2,12,49,21
India,Madhya Pradesh,Gwalior,"City Center, Gwalior - MPPCB",26-04-2025 18:00:00,26.203442,78.193251,OZONE,28,151,136
India,Madhya Pradesh,Gwalior,"Deen Dayal Nagar, Gwalior - MPPCB",26-04-2025 18:00:00,26.259242,78.216432,PM2.5,57,342,232
India,Madhya Pradesh,Gwalior,"Deen Dayal Nagar, Gwalior - MPPCB",26-04-2025 18:00:00,26.259242,78.216432,NO2,3,23,14
India,Madhya Pradesh,Gwalior,"Deen Dayal Nagar, Gwalior - MPPCB",26-04-2025 18:00:00,26.259242,78.216432,NH3,5,8,7
India,Madhya Pradesh,Gwalior,"Maharaj Bada, Gwalior - MPPCB",26-04-2025 18:00:00,26.200388,78.147714,NO2,1,4,2
India,Madhya Pradesh,Indore,"Chhoti Gwaltoli, Indore - MPPCB",26-04-2025 18:00:00,22.431,75.5213,PM10,92,144,114
India,Madhya Pradesh,Indore,"Chhoti Gwaltoli, Indore - MPPCB",26-04-2025 18:00:00,22.431,75.5213,NH3,8,12,11
